,latitude,longitude,shop,name,city,pincode,TOT_P,revenue,shop_category,SC_ST_RATE,Total_literacy_rate,ill_rate,childreen_population_rate,Cultivators_pulation_rate,agricultural_population_rate,household_industry_population_rate,Other_Worker_population_rate,marginial_workers_population_rate,marginial_workers_lessthan6months_population_rate,total_working_population_rate,Street_Address
0,19.140853,72.8324598,mall,Crystal Plaza,mumbai,400053,12442373,3736454.81,General Retail,0.075,0.8105,0.189502919,0.096747622,0.00114954,0.001824973,0.011704761,0.365092013,0.023641873,0.023641873,0.403413159," , "
1,18.9652997,72.8072717,clothes,VAMA,mumbai,400026,12442373,9429727.81,Fashion,0.075,0.8105,0.189502919,0.096747622,0.00114954,0.001824973,0.011704761,0.365092013,0.023641873,0.023641873,0.403413159," , "
2,19.0499651,72.8263763,bicycle,Nattu Cyclewalla,mumbai,400050,12442373,2538708.3,Specialty & Hobby,0.075,0.8105,0.189502919,0.096747622,0.00114954,0.001824973,0.011704761,0.365092013,0.023641873,0.023641873,0.403413159," , "
3,19.0551689,72.8269905,bakery,J Hearsch and Co,mumbai,400050,12442373,8889861.55,Food & Grocery,0.075,0.8105,0.189502919,0.096747622,0.00114954,0.001824973,0.011704761,0.365092013,0.023641873,0.023641873,0.403413159," ,Hill Road"
4,18.9542416,72.7973374,alcohol,Moksh Wines,mumbai,400006,12442373,3385690.78,Food & Grocery,0.075,0.8105,0.189502919,0.096747622,0.00114954,0.001824973,0.011704761,0.365092013,0.023641873,0.023641873,0.403413159," , "
5,18.9775387,72.8109505,supermarket,Heera Panna,mumbai,400026,12442373,4260205.79,Food & Grocery,0.075,0.8105,0.189502919,0.096747622,0.00114954,0.001824973,0.011704761,0.365092013,0.023641873,0.023641873,0.403413159," , "
6,18.9321174,72.8326369,supermarket,Akbarallys,mumbai,400032,12442373,4629554.57,Food & Grocery,0.075,0.8105,0.189502919,0.096747622,0.00114954,0.001824973,0.011704761,0.365092013,0.023641873,0.023641873,0.403413159," , "
7,18.9280426,72.8311609,clothes,Westside,mumbai,400032,12442373,7037019.17,Fashion,0.075,0.8105,0.189502919,0.096747622,0.00114954,0.001824973,0.011704761,0.365092013,0.023641873,0.023641873,0.403413159," , "
8,18.9599225,72.8307554,bakery,Imadadiya Bakery,mumbai,400003,12442373,7282917.05,Food & Grocery,0.075,0.8105,0.189502919,0.096747622,0.00114954,0.001824973,0.011704761,0.365092013,0.023641873,0.023641873,0.403413159," , "
9,18.9599275,72.8309377,bakery,Firoz Farsan,mumbai,400003,12442373,7776659.68,Food & Grocery,0.075,0.8105,0.189502919,0.096747622,0.00114954,0.001824973,0.011704761,0.365092013,0.023641873,0.023641873,0.403413159," , "
10,19.1548114,72.8564354,convenience,Food Bazar,mumbai,400062,12442373,3280565.19,Food & Grocery,0.075,0.8105,0.189502919,0.096747622,0.00114954,0.001824973,0.011704761,0.365092013,0.023641873,0.023641873,0.403413159," , "
11,18.9445101,72.8262529,bakery,Paris Bakery,mumbai,400020,12442373,7942876.78,Food & Grocery,0.075,0.8105,0.189502919,0.096747622,0.00114954,0.001824973,0.011704761,0.365092013,0.023641873,0.023641873,0.403413159," , "
12,18.9334183,72.8270064,convenience,Sarvodaya,mumbai,400023,12442373,4645159.25,Food & Grocery,0.075,0.8105,0.189502919,0.096747622,0.00114954,0.001824973,0.011704761,0.365092013,0.023641873,0.023641873,0.403413159," , "
13,18.9282125,72.8318961,travel_agency,,mumbai,400023,12442373,3338185.98,Services,0.075,0.8105,0.189502919,0.096747622,0.00114954,0.001824973,0.011704761,0.365092013,0.023641873,0.023641873,0.403413159," , "
14,19.1665304,72.8459389,variety_store,Ashoka Shopping Centre,mumbai,400062,12442373,3086231.7,General Retail,0.075,0.8105,0.189502919,0.096747622,0.00114954,0.001824973,0.011704761,0.365092013,0.023641873,0.023641873,0.403413159," , "
15,18.9349748,72.8333911,hairdresser,Fort Hairdresser,mumbai,400038,12442373,1936330.69,Health & Beauty,0.075,0.8105,0.189502919,0.096747622,0.00114954,0.001824973,0.011704761,0.365092013,0.023641873,0.023641873,0.403413159," , "
16,18.9295514,72.8275099,books,Oxford Bookstore,mumbai,400023,12442373,139178.62,Specialty & Hobby,0.075,0.8105,0.189502919,0.096747622,0.00114954,0.001824973,0.011704761,0.365092013,0.023641873,0.023641873,0.403413159," , "
17,19.1122189,72.8504226,doityourself,Advanced Music Labs,mumbai,400069,12442373,2514894.69,Home & Garden,0.075,0.8105,0.189502919,0.096747622,0.00114954,0.001824973,0.011704761,0.365092013,0.023641873,0.023641873,0.403413159," ,Koldongri 1"
18,19.1111671,72.8499103,seafood,Fish Market,mumbai,400057,12442373,3406894.2,Food & Grocery,0.075,0.8105,0.189502919,0.096747622,0.00114954,0.001824973,0.011704761,0.365092013,0.023641873,0.023641873,0.403413159," , "
19,19.1875716,72.8467885,department_store,Nataraj Market,mumbai,400064,12442373,2835570.87,General Retail,0.075,0.8105,0.189502919,0.096747622,0.00114954,0.001824973,0.011704761,0.365092013,0.023641873,0.023641873,0.403413159," , "
20,19.1865736,72.8350829,supermarket,Dechatholon,mumbai,400064,12442373,4745566.95,Food & Grocery,0.075,0.8105,0.189502919,0.096747622,0.00114954,0.001824973,0.011704761,0.365092013,0.023641873,0.023641873,0.403413159," ,Link Road"
21,19.2310267,72.8555369,department_store,Dattani Trade Centre,mumbai,400066,12442373,2973091.96,General Retail,0.075,0.8105,0.189502919,0.096747622,0.00114954,0.001824973,0.011704761,0.365092013,0.023641873,0.023641873,0.403413159," , "
22,19.1900395,72.8591049,mall,"Big Bazzar, Kandivali",mumbai,400097,12442373,2636648.22,General Retail,0.075,0.8105,0.189502919,0.096747622,0.00114954,0.001824973,0.011704761,0.365092013,0.023641873,0.023641873,0.403413159," , "
23,19.0429129,72.9291774,convenience,store,mumbai,400094,12442373,3818780.84,Food & Grocery,0.075,0.8105,0.189502919,0.096747622,0.00114954,0.001824973,0.011704761,0.365092013,0.023641873,0.023641873,0.403413159," , "
24,19.0465233,72.9301548,seafood,,mumbai,400094,12442373,2991076.3,Food & Grocery,0.075,0.8105,0.189502919,0.096747622,0.00114954,0.001824973,0.011704761,0.365092013,0.023641873,0.023641873,0.403413159," , "
25,19.0423488,72.9332959,bakery,Bliss Bakery,mumbai,400094,12442373,7531155.24,Food & Grocery,0.075,0.8105,0.189502919,0.096747622,0.00114954,0.001824973,0.011704761,0.365092013,0.023641873,0.023641873,0.403413159," , "
26,19.0423412,72.933379,convenience,Laxmi general store,mumbai,400094,12442373,4542592.74,Food & Grocery,0.075,0.8105,0.189502919,0.096747622,0.00114954,0.001824973,0.011704761,0.365092013,0.023641873,0.023641873,0.403413159," , "
27,19.0432312,72.9248979,kiosk,Reliance,mumbai,400088,12442373,2053476.83,General Retail,0.075,0.8105,0.189502919,0.096747622,0.00114954,0.001824973,0.011704761,0.365092013,0.023641873,0.023641873,0.403413159," , "
28,19.2177069,72.8285354,supermarket,Apna Bazaar,mumbai,400067,12442373,3498754.72,Food & Grocery,0.075,0.8105,0.189502919,0.096747622,0.00114954,0.001824973,0.011704761,0.365092013,0.023641873,0.023641873,0.403413159," ,RDP Road No 5"
29,19.2131555,72.8422201,supermarket,DMart,mumbai,400067,12442373,3904791.76,Food & Grocery,0.075,0.8105,0.189502919,0.096747622,0.00114954,0.001824973,0.011704761,0.365092013,0.023641873,0.023641873,0.403413159," ,Boraspada Road"
30,19.1300182,72.869869,car_repair,BMW Motorrad Service,mumbai,400096,12442373,2456096.17,Services,0.075,0.8105,0.189502919,0.096747622,0.00114954,0.001824973,0.011704761,0.365092013,0.023641873,0.023641873,0.403413159," , "
31,19.1048517,72.8483586,clothes,Verma Tailor,mumbai,400057,12442373,8259065.62,Fashion,0.075,0.8105,0.189502919,0.096747622,0.00114954,0.001824973,0.011704761,0.365092013,0.023641873,0.023641873,0.403413159," , "
32,19.0743539,72.8252062,bakery,Ahmed Bakery,mumbai,400052,12442373,9756860.02,Food & Grocery,0.075,0.8105,0.189502919,0.096747622,0.00114954,0.001824973,0.011704761,0.365092013,0.023641873,0.023641873,0.403413159," , "
33,19.0746073,72.8259574,tea,,mumbai,400052,12442373,2447725.33,Food & Grocery,0.075,0.8105,0.189502919,0.096747622,0.00114954,0.001824973,0.011704761,0.365092013,0.023641873,0.023641873,0.403413159," , "
34,18.9339735,72.8239451,travel_agency,Iran Air,mumbai,400020,12442373,3332120.66,Services,0.075,0.8105,0.189502919,0.096747622,0.00114954,0.001824973,0.011704761,0.365092013,0.023641873,0.023641873,0.403413159," , "
35,18.9261477,72.8278365,travel_agency,Korean Air,mumbai,400023,12442373,3415666.5,Services,0.075,0.8105,0.189502919,0.096747622,0.00114954,0.001824973,0.011704761,0.365092013,0.023641873,0.023641873,0.403413159," , "
36,18.9201305,72.8302145,shoes,Bata,mumbai,400039,12442373,3672892.04,Fashion,0.075,0.8105,0.189502919,0.096747622,0.00114954,0.001824973,0.011704761,0.365092013,0.023641873,0.023641873,0.403413159," , "
37,18.9192171,72.8292274,pastry,Theobroma,mumbai,400039,12442373,2965132.41,Food & Grocery,0.075,0.8105,0.189502919,0.096747622,0.00114954,0.001824973,0.011704761,0.365092013,0.023641873,0.023641873,0.403413159," , "
38,19.1029995,72.8451435,hairdresser,Hair Plus Saloon,mumbai,400057,12442373,3088553,Health & Beauty,0.075,0.8105,0.189502919,0.096747622,0.00114954,0.001824973,0.011704761,0.365092013,0.023641873,0.023641873,0.403413159," ,Hanuman Road"
39,19.1030831,72.845452,car_repair,Hilti,mumbai,400057,12442373,3255157.51,Services,0.075,0.8105,0.189502919,0.096747622,0.00114954,0.001824973,0.011704761,0.365092013,0.023641873,0.023641873,0.403413159," ,Hanuman Road"
40,19.1030656,72.8475709,convenience,Regal Optics,mumbai,400057,12442373,4028049.52,Food & Grocery,0.075,0.8105,0.189502919,0.096747622,0.00114954,0.001824973,0.011704761,0.365092013,0.023641873,0.023641873,0.403413159," ,Hanuman Road"
41,19.1031922,72.8479705,books,Chirag Book,mumbai,400057,12442373,195601.88,Specialty & Hobby,0.075,0.8105,0.189502919,0.096747622,0.00114954,0.001824973,0.011704761,0.365092013,0.023641873,0.023641873,0.403413159," ,Hanuman Road"
42,19.1032024,72.8481771,convenience,Raghuvir Stores,mumbai,400057,12442373,3481136.31,Food & Grocery,0.075,0.8105,0.189502919,0.096747622,0.00114954,0.001824973,0.011704761,0.365092013,0.023641873,0.023641873,0.403413159," ,Hanuman Road"
43,19.1032098,72.8473027,books,Jignesh Book,mumbai,400057,12442373,180423.24,Specialty & Hobby,0.075,0.8105,0.189502919,0.096747622,0.00114954,0.001824973,0.011704761,0.365092013,0.023641873,0.023641873,0.403413159," ,Hanuman Road"
44,19.103252,72.8473598,jewelry,Shivkeerti,mumbai,400057,12442373,2950080.18,Fashion,0.075,0.8105,0.189502919,0.096747622,0.00114954,0.001824973,0.011704761,0.365092013,0.023641873,0.023641873,0.403413159," ,Hanuman Road"
45,19.1032354,72.8489013,clothes,Cotton King,mumbai,400057,12442373,6772009.44,Fashion,0.075,0.8105,0.189502919,0.096747622,0.00114954,0.001824973,0.011704761,0.365092013,0.023641873,0.023641873,0.403413159," ,Hanuman Road"
46,19.1032125,72.8487564,books,Sandip Book,mumbai,400057,12442373,181145.31,Specialty & Hobby,0.075,0.8105,0.189502919,0.096747622,0.00114954,0.001824973,0.011704761,0.365092013,0.023641873,0.023641873,0.403413159," ,Hanuman Road"
47,19.1035698,72.8493894,hairdresser,Lakme Salon,mumbai,400057,12442373,3089868.06,Health & Beauty,0.075,0.8105,0.189502919,0.096747622,0.00114954,0.001824973,0.011704761,0.365092013,0.023641873,0.023641873,0.403413159," ,Hanuman Road"
48,19.1034482,72.849105,convenience,Hari Om Milk & Colddrink,mumbai,400057,12442373,4251060.14,Food & Grocery,0.075,0.8105,0.189502919,0.096747622,0.00114954,0.001824973,0.011704761,0.365092013,0.023641873,0.023641873,0.403413159," ,Hanuman Road"
49,19.1033847,72.8495879,doityourself,Tejas Electronics,mumbai,400057,12442373,2706068.21,Home & Garden,0.075,0.8105,0.189502919,0.096747622,0.00114954,0.001824973,0.011704761,0.365092013,0.023641873,0.023641873,0.403413159," ,Hanuman Road"
50,19.1033823,72.8497784,convenience,Thote Milk,mumbai,400057,12442373,3130942.88,Food & Grocery,0.075,0.8105,0.189502919,0.096747622,0.00114954,0.001824973,0.011704761,0.365092013,0.023641873,0.023641873,0.403413159," ,Hanuman Road"
51,19.1035927,72.8511972,books,Aanand Book,mumbai,400057,12442373,173405.84,Specialty & Hobby,0.075,0.8105,0.189502919,0.096747622,0.00114954,0.001824973,0.011704761,0.365092013,0.023641873,0.023641873,0.403413159," ,Hanuman Road"
52,19.1035775,72.8513983,gift,Milan,mumbai,400057,12442373,2772588.3,Specialty & Hobby,0.075,0.8105,0.189502919,0.096747622,0.00114954,0.001824973,0.011704761,0.365092013,0.023641873,0.023641873,0.403413159," ,Hanuman Road"
53,19.10359,72.8514949,convenience,Mukesh Lights & Ceramics,mumbai,400057,12442373,3878199.07,Food & Grocery,0.075,0.8105,0.189502919,0.096747622,0.00114954,0.001824973,0.011704761,0.365092013,0.023641873,0.023641873,0.403413159," ,Hanuman Road"
54,19.1035804,72.8515897,convenience,Pankaj,mumbai,400057,12442373,3902450.66,Food & Grocery,0.075,0.8105,0.189502919,0.096747622,0.00114954,0.001824973,0.011704761,0.365092013,0.023641873,0.023641873,0.403413159," ,Hanuman Road"
55,19.1035676,72.8516755,doityourself,Mukesh Electric & Hardware,mumbai,400057,12442373,3039655.52,Home & Garden,0.075,0.8105,0.189502919,0.096747622,0.00114954,0.001824973,0.011704761,0.365092013,0.023641873,0.023641873,0.403413159," ,Hanuman Road"
56,19.1037573,72.8511489,bakery,Birdy's,mumbai,400057,12442373,7575484.91,Food & Grocery,0.075,0.8105,0.189502919,0.096747622,0.00114954,0.001824973,0.011704761,0.365092013,0.023641873,0.023641873,0.403413159," ,Hanuman Road"
57,19.103651,72.8525384,jewelry,V.D.Parekh,mumbai,400057,12442373,3574199.15,Fashion,0.075,0.8105,0.189502919,0.096747622,0.00114954,0.001824973,0.011704761,0.365092013,0.023641873,0.023641873,0.403413159," ,Hanuman Road"
58,19.103618,72.8527235,convenience,Jayant Janaral Stores,mumbai,400057,12442373,4453720.02,Food & Grocery,0.075,0.8105,0.189502919,0.096747622,0.00114954,0.001824973,0.011704761,0.365092013,0.023641873,0.023641873,0.403413159," ,Hanuman Road"
59,19.1037955,72.8527609,convenience,Sapre,mumbai,400057,12442373,3337613.42,Food & Grocery,0.075,0.8105,0.189502919,0.096747622,0.00114954,0.001824973,0.011704761,0.365092013,0.023641873,0.023641873,0.403413159," ,Hanuman Road"
60,19.1037751,72.8530184,convenience,Vaibhav Decorators,mumbai,400057,12442373,3830329.09,Food & Grocery,0.075,0.8105,0.189502919,0.096747622,0.00114954,0.001824973,0.011704761,0.365092013,0.023641873,0.023641873,0.403413159," ,Hanuman Road"
61,19.1038094,72.8529082,convenience,Ganesh Stores,mumbai,400057,12442373,4547965.98,Food & Grocery,0.075,0.8105,0.189502919,0.096747622,0.00114954,0.001824973,0.011704761,0.365092013,0.023641873,0.023641873,0.403413159," ,Hanuman Road"
62,19.1035621,72.8537319,car_repair,Deepak Auto,mumbai,400057,12442373,3307871.71,Services,0.075,0.8105,0.189502919,0.096747622,0.00114954,0.001824973,0.011704761,0.365092013,0.023641873,0.023641873,0.403413159," ,Hanuman Road"
63,19.1035647,72.8536487,convenience,Naresh Ceramics,mumbai,400057,12442373,4992510.36,Food & Grocery,0.075,0.8105,0.189502919,0.096747622,0.00114954,0.001824973,0.011704761,0.365092013,0.023641873,0.023641873,0.403413159," ,Hanuman Road"
64,19.1037984,72.8530721,convenience,Krishna Dairy Farm,mumbai,400057,12442373,3288097.58,Food & Grocery,0.075,0.8105,0.189502919,0.096747622,0.00114954,0.001824973,0.011704761,0.365092013,0.023641873,0.023641873,0.403413159," ,Hanuman Road"
65,18.9603218,72.8164556,battery,Pitambra Power,mumbai,400004,12442373,3099754.01,Electronics & Auto,0.075,0.8105,0.189502919,0.096747622,0.00114954,0.001824973,0.011704761,0.365092013,0.023641873,0.023641873,0.403413159," , "
66,19.0716526,72.8225406,car,Salim Garage,mumbai,400052,12442373,2718023.62,Electronics & Auto,0.075,0.8105,0.189502919,0.096747622,0.00114954,0.001824973,0.011704761,0.365092013,0.023641873,0.023641873,0.403413159," , "
67,19.0733723,72.8234599,convenience,Store,mumbai,400052,12442373,4088976.41,Food & Grocery,0.075,0.8105,0.189502919,0.096747622,0.00114954,0.001824973,0.011704761,0.365092013,0.023641873,0.023641873,0.403413159," , "
68,19.0733981,72.8235662,convenience,Store,mumbai,400052,12442373,4462808.28,Food & Grocery,0.075,0.8105,0.189502919,0.096747622,0.00114954,0.001824973,0.011704761,0.365092013,0.023641873,0.023641873,0.403413159," , "
69,19.0734907,72.8235607,convenience,Store,mumbai,400052,12442373,4430288.49,Food & Grocery,0.075,0.8105,0.189502919,0.096747622,0.00114954,0.001824973,0.011704761,0.365092013,0.023641873,0.023641873,0.403413159," , "
70,19.0729122,72.8232891,tailor,Prakash Tailor,mumbai,400052,12442373,3431983.29,Fashion,0.075,0.8105,0.189502919,0.096747622,0.00114954,0.001824973,0.011704761,0.365092013,0.023641873,0.023641873,0.403413159," , "
71,19.0712779,72.8240456,florist,pretty Petals,mumbai,400052,12442373,3797890.3,Home & Garden,0.075,0.8105,0.189502919,0.096747622,0.00114954,0.001824973,0.011704761,0.365092013,0.023641873,0.023641873,0.403413159," , "
72,19.0718525,72.8248073,tattoo,Hakim Alims Tattoo,mumbai,400052,12442373,2213703.3,Health & Beauty,0.075,0.8105,0.189502919,0.096747622,0.00114954,0.001824973,0.011704761,0.365092013,0.023641873,0.023641873,0.403413159," , "
73,19.0525297,72.9001451,kiosk,MCGM Information Kiosk,mumbai,400089,12442373,2513509.61,General Retail,0.075,0.8105,0.189502919,0.096747622,0.00114954,0.001824973,0.011704761,0.365092013,0.023641873,0.023641873,0.403413159," , "
74,19.1147139,72.827495,books,Cross Word,mumbai,400058,12442373,137948.04,Specialty & Hobby,0.075,0.8105,0.189502919,0.096747622,0.00114954,0.001824973,0.011704761,0.365092013,0.023641873,0.023641873,0.403413159," ,Parulekar Road"
75,19.1145973,72.8275004,department_store,Shoppers Stop,mumbai,400058,12442373,2590734.76,General Retail,0.075,0.8105,0.189502919,0.096747622,0.00114954,0.001824973,0.011704761,0.365092013,0.023641873,0.023641873,0.403413159," , "
76,19.1129968,72.8283585,electronics,CromƒÅ,mumbai,400058,12442373,3252468.94,Electronics & Auto,0.075,0.8105,0.189502919,0.096747622,0.00114954,0.001824973,0.011704761,0.365092013,0.023641873,0.023641873,0.403413159," , "
77,19.1321108,72.8696918,car_repair,Shakti Sai Tyres Pvt. Ltd.,mumbai,400093,12442373,2937145.44,Services,0.075,0.8105,0.189502919,0.096747622,0.00114954,0.001824973,0.011704761,0.365092013,0.023641873,0.023641873,0.403413159," , "
78,18.9165338,72.8175939,convenience,King Plaza,mumbai,400005,0,54194.76,Food & Grocery,0,0,0,0,0,0,0,0,0,0,0," ,GD Somani Road"
79,19.1100316,72.8266581,bakery,Fresco Bakery,mumbai,400058,12442373,7175096.34,Food & Grocery,0.075,0.8105,0.189502919,0.096747622,0.00114954,0.001824973,0.011704761,0.365092013,0.023641873,0.023641873,0.403413159," , "
80,19.1178214,72.8533808,convenience,Jain Tripathi & Co.,mumbai,400069,12442373,3779996.84,Food & Grocery,0.075,0.8105,0.189502919,0.096747622,0.00114954,0.001824973,0.011704761,0.365092013,0.023641873,0.023641873,0.403413159," , "
81,19.2269553,72.8629775,supermarket,Metro,mumbai,400066,12442373,4575582.96,Food & Grocery,0.075,0.8105,0.189502919,0.096747622,0.00114954,0.001824973,0.011704761,0.365092013,0.023641873,0.023641873,0.403413159," ,Western Express Highway"
82,19.1204539,72.9263887,supermarket,Home Town,mumbai,400059,12442373,4225955.05,Food & Grocery,0.075,0.8105,0.189502919,0.096747622,0.00114954,0.001824973,0.011704761,0.365092013,0.023641873,0.023641873,0.403413159," , "
83,19.2239978,72.8539275,clothes,Pantaloons,mumbai,400066,12442373,7085547.69,Fashion,0.075,0.8105,0.189502919,0.096747622,0.00114954,0.001824973,0.011704761,0.365092013,0.023641873,0.023641873,0.403413159," , "
84,19.2277958,72.85551,convenience,Anupam Superstore,mumbai,400066,12442373,4229714.08,Food & Grocery,0.075,0.8105,0.189502919,0.096747622,0.00114954,0.001824973,0.011704761,0.365092013,0.023641873,0.023641873,0.403413159," , "
85,19.230373,72.8402614,supermarket,Gangar Supermarket,mumbai,400091,12442373,3508589.42,Food & Grocery,0.075,0.8105,0.189502919,0.096747622,0.00114954,0.001824973,0.011704761,0.365092013,0.023641873,0.023641873,0.403413159," , "
86,18.9243285,72.83175,supermarket,Sahakari Bhandar,mumbai,400039,12442373,3986498.56,Food & Grocery,0.075,0.8105,0.189502919,0.096747622,0.00114954,0.001824973,0.011704761,0.365092013,0.023641873,0.023641873,0.403413159," , "
87,18.934187,72.83481,books,Strand Book Stall,mumbai,400038,12442373,163417.25,Specialty & Hobby,0.075,0.8105,0.189502919,0.096747622,0.00114954,0.001824973,0.011704761,0.365092013,0.023641873,0.023641873,0.403413159," ,Sayed Abdullah Brevi Road"
88,19.0705394,72.8988757,supermarket,R S Mani Supermarket,mumbai,400089,12442373,3789096.26,Food & Grocery,0.075,0.8105,0.189502919,0.096747622,0.00114954,0.001824973,0.011704761,0.365092013,0.023641873,0.023641873,0.403413159," , "
89,19.1035347,72.8316244,supermarket,Sahakari Bhandar,mumbai,400057,12442373,4797319.75,Food & Grocery,0.075,0.8105,0.189502919,0.096747622,0.00114954,0.001824973,0.011704761,0.365092013,0.023641873,0.023641873,0.403413159," , "
90,19.1171272,72.9098431,hairdresser,Enrich Salons,mumbai,400076,12442373,3350038.63,Health & Beauty,0.075,0.8105,0.189502919,0.096747622,0.00114954,0.001824973,0.011704761,0.365092013,0.023641873,0.023641873,0.403413159," ,Central Avenue, Powai"
91,19.1386267,72.8158504,alcohol,Seasons's Wines,mumbai,400061,12442373,3368118.65,Food & Grocery,0.075,0.8105,0.189502919,0.096747622,0.00114954,0.001824973,0.011704761,0.365092013,0.023641873,0.023641873,0.403413159," , "
92,19.1307805,72.8198019,clothes,Mango,mumbai,400061,12442373,8514188.98,Fashion,0.075,0.8105,0.189502919,0.096747622,0.00114954,0.001824973,0.011704761,0.365092013,0.023641873,0.023641873,0.403413159," , "
93,19.1393379,72.8320061,car,SK Wheels,mumbai,400053,12442373,2434495.2,Electronics & Auto,0.075,0.8105,0.189502919,0.096747622,0.00114954,0.001824973,0.011704761,0.365092013,0.023641873,0.023641873,0.403413159," ,New Link Road, Andheri West"
94,19.2168,72.8703672,convenience,,mumbai,400101,12442373,4230737.34,Food & Grocery,0.075,0.8105,0.189502919,0.096747622,0.00114954,0.001824973,0.011704761,0.365092013,0.023641873,0.023641873,0.403413159," , "
95,19.2181864,72.8688882,convenience,,mumbai,400066,12442373,4387331.91,Food & Grocery,0.075,0.8105,0.189502919,0.096747622,0.00114954,0.001824973,0.011704761,0.365092013,0.023641873,0.023641873,0.403413159," , "
96,19.2175725,72.8707668,convenience,,mumbai,400101,12442373,4561710.04,Food & Grocery,0.075,0.8105,0.189502919,0.096747622,0.00114954,0.001824973,0.011704761,0.365092013,0.023641873,0.023641873,0.403413159," , "
97,19.209009,72.8739023,supermarket,DMart,mumbai,400101,12442373,3283753.09,Food & Grocery,0.075,0.8105,0.189502919,0.096747622,0.00114954,0.001824973,0.011704761,0.365092013,0.023641873,0.023641873,0.403413159," , "
98,19.2120029,72.8735054,alcohol,Ricky Wines,mumbai,400101,12442373,2631484.28,Food & Grocery,0.075,0.8105,0.189502919,0.096747622,0.00114954,0.001824973,0.011704761,0.365092013,0.023641873,0.023641873,0.403413159," , "
99,19.2165847,72.8704235,convenience,,mumbai,400101,12442373,4798717.82,Food & Grocery,0.075,0.8105,0.189502919,0.096747622,0.00114954,0.001824973,0.011704761,0.365092013,0.023641873,0.023641873,0.403413159," , "
100,19.2123321,72.8728884,supermarket,Nature's Basket,mumbai,400101,12442373,5245696.52,Food & Grocery,0.075,0.8105,0.189502919,0.096747622,0.00114954,0.001824973,0.011704761,0.365092013,0.023641873,0.023641873,0.403413159," ,Viceroy Court, opp. Domino's Pizza, Thakur Village, Kandivali East, Mumbai, Maharashtra 400101"
101,19.2119928,72.8742029,bakery,,mumbai,400101,12442373,5532004.9,Food & Grocery,0.075,0.8105,0.189502919,0.096747622,0.00114954,0.001824973,0.011704761,0.365092013,0.023641873,0.023641873,0.403413159," , "
102,19.1254948,72.8221529,bakery,Mad Over Donuts,mumbai,400061,12442373,7162037.66,Food & Grocery,0.075,0.8105,0.189502919,0.096747622,0.00114954,0.001824973,0.011704761,0.365092013,0.023641873,0.023641873,0.403413159," ,Juhu Versova Link Road"
103,19.1253435,72.8222929,hairdresser,Salon Drama,mumbai,400053,12442373,3165456.12,Health & Beauty,0.075,0.8105,0.189502919,0.096747622,0.00114954,0.001824973,0.011704761,0.365092013,0.023641873,0.023641873,0.403413159," , "
104,19.1422813,72.8291013,clothes,Falak Womenswear,mumbai,400053,12442373,8429572.33,Fashion,0.075,0.8105,0.189502919,0.096747622,0.00114954,0.001824973,0.011704761,0.365092013,0.023641873,0.023641873,0.403413159," , "
105,19.1468296,72.8293642,convenience,Godrej Natures Basket,mumbai,400053,12442373,3722798.13,Food & Grocery,0.075,0.8105,0.189502919,0.096747622,0.00114954,0.001824973,0.011704761,0.365092013,0.023641873,0.023641873,0.403413159," ,Walawalkar Marg, Andheri(West),"
106,19.1374694,72.8315851,jewelry,Tanishq,mumbai,400053,12442373,3638543.58,Fashion,0.075,0.8105,0.189502919,0.096747622,0.00114954,0.001824973,0.011704761,0.365092013,0.023641873,0.023641873,0.403413159,"Tanishq,New Link Road, Andheri West"
107,19.1371099,72.8321829,car,Renault,mumbai,400053,12442373,2608508.44,Electronics & Auto,0.075,0.8105,0.189502919,0.096747622,0.00114954,0.001824973,0.011704761,0.365092013,0.023641873,0.023641873,0.403413159," ,New Link Road, Andheri West"
108,19.134244,72.8320998,car_repair,Vitesse Maruti Suzuki Service,mumbai,400058,12442373,3977218.21,Services,0.075,0.8105,0.189502919,0.096747622,0.00114954,0.001824973,0.011704761,0.365092013,0.023641873,0.023641873,0.403413159," ,New Link Road, Andheri West"
109,19.1316654,72.8354256,car,Autobahn Skoda,mumbai,400053,12442373,2811519.89,Electronics & Auto,0.075,0.8105,0.189502919,0.096747622,0.00114954,0.001824973,0.011704761,0.365092013,0.023641873,0.023641873,0.403413159," ,Off Veera Desai Road"
110,19.1316731,72.8352861,car,Volkswagen Mumbai West,mumbai,400053,12442373,2693649.05,Electronics & Auto,0.075,0.8105,0.189502919,0.096747622,0.00114954,0.001824973,0.011704761,0.365092013,0.023641873,0.023641873,0.403413159," ,Off Veera Desai Road"
111,19.1251922,72.8223929,alcohol,Vikas Wines,mumbai,400053,12442373,3147963.45,Food & Grocery,0.075,0.8105,0.189502919,0.096747622,0.00114954,0.001824973,0.011704761,0.365092013,0.023641873,0.023641873,0.403413159," , "
112,19.1359747,72.8322553,car,Fiat,mumbai,400053,12442373,2320895.15,Electronics & Auto,0.075,0.8105,0.189502919,0.096747622,0.00114954,0.001824973,0.011704761,0.365092013,0.023641873,0.023641873,0.403413159," ,New Link Road, Andheri West"
113,19.1416711,72.8300478,clothes,Options,mumbai,400053,12442373,8726843.34,Fashion,0.075,0.8105,0.189502919,0.096747622,0.00114954,0.001824973,0.011704761,0.365092013,0.023641873,0.023641873,0.403413159," , "
114,19.1415,72.8319082,car,Shreenath Hyundai,mumbai,400053,12442373,2423784.51,Electronics & Auto,0.075,0.8105,0.189502919,0.096747622,0.00114954,0.001824973,0.011704761,0.365092013,0.023641873,0.023641873,0.403413159," ,New Link Road, Andheri West"
115,19.1408374,72.8332241,car,Nissan,mumbai,400053,12442373,3601408.05,Electronics & Auto,0.075,0.8105,0.189502919,0.096747622,0.00114954,0.001824973,0.011704761,0.365092013,0.023641873,0.023641873,0.403413159," ,Off Link Road, Andheri West"
116,19.13468,72.8107326,food,Domino's,mumbai,400061,12442373,2415004.69,Food & Grocery,0.075,0.8105,0.189502919,0.096747622,0.00114954,0.001824973,0.011704761,0.365092013,0.023641873,0.023641873,0.403413159," , "
117,19.1173314,72.8294583,alcohol,Fition Wines,mumbai,400053,12442373,3308674.43,Food & Grocery,0.075,0.8105,0.189502919,0.096747622,0.00114954,0.001824973,0.011704761,0.365092013,0.023641873,0.023641873,0.403413159," ,New Link Road"
118,19.1297949,72.8222137,clothes,Shakti Collections,mumbai,400058,12442373,7266460.12,Fashion,0.075,0.8105,0.189502919,0.096747622,0.00114954,0.001824973,0.011704761,0.365092013,0.023641873,0.023641873,0.403413159," ,JP Road"
119,18.9369702,72.8338777,craft,Contemporary Arts & Crafts,mumbai,400001,12442373,2446565.78,Specialty & Hobby,0.075,0.8105,0.189502919,0.096747622,0.00114954,0.001824973,0.011704761,0.365092013,0.023641873,0.023641873,0.403413159," ,Dr Dadabhai Naoroji Road"
120,18.937583,72.8339371,kiosk,,mumbai,400038,12442373,3026896.84,General Retail,0.075,0.8105,0.189502919,0.096747622,0.00114954,0.001824973,0.011704761,0.365092013,0.023641873,0.023641873,0.403413159," , "
121,19.0616468,72.8289941,butcher,Joseph's Cold Storage,mumbai,400050,12442373,2455540.73,Food & Grocery,0.075,0.8105,0.189502919,0.096747622,0.00114954,0.001824973,0.011704761,0.365092013,0.023641873,0.023641873,0.403413159," ,St. John Street"
122,19.0618528,72.8294351,hairdresser,Rewind The Salon,mumbai,400050,12442373,2710747.91,Health & Beauty,0.075,0.8105,0.189502919,0.096747622,0.00114954,0.001824973,0.011704761,0.365092013,0.023641873,0.023641873,0.403413159," ,Dr Ambedkar Road, Bandra West"
123,19.061938,72.82943,beauty,Urban Thai Spa,mumbai,400050,12442373,3819641.94,Health & Beauty,0.075,0.8105,0.189502919,0.096747622,0.00114954,0.001824973,0.011704761,0.365092013,0.023641873,0.023641873,0.403413159," ,Dr Ambedkar Road, Bandra West"
124,19.0623883,72.8294313,bed,Bombay Mattress & Furnishings,mumbai,400050,12442373,4211953.55,Home & Garden,0.075,0.8105,0.189502919,0.096747622,0.00114954,0.001824973,0.011704761,0.365092013,0.023641873,0.023641873,0.403413159,"Bombay Mattress & Furnishings, "
125,19.0623643,72.8294326,doityourself,Sony Electrical and Hardware,mumbai,400050,12442373,2617967.92,Home & Garden,0.075,0.8105,0.189502919,0.096747622,0.00114954,0.001824973,0.011704761,0.365092013,0.023641873,0.023641873,0.403413159," ,Dr B.R Ambedkar Road, Bandra West"
126,19.0624731,72.8296623,alcohol,Jude's Wines,mumbai,400050,12442373,2857831.61,Food & Grocery,0.075,0.8105,0.189502919,0.096747622,0.00114954,0.001824973,0.011704761,0.365092013,0.023641873,0.023641873,0.403413159," ,Pali Junction, Dr BR Ambedkar Road, Bandra West"
127,19.0626125,72.8296248,convenience,Regal Plus,mumbai,400050,12442373,5762871.58,Food & Grocery,0.075,0.8105,0.189502919,0.096747622,0.00114954,0.001824973,0.011704761,0.365092013,0.023641873,0.023641873,0.403413159," ,Pali Junction, Dr BR Ambedkar Road, Bandra West"
128,19.0625175,72.8296422,butcher,Jude's Cold Storage,mumbai,400050,12442373,2758783.46,Food & Grocery,0.075,0.8105,0.189502919,0.096747622,0.00114954,0.001824973,0.011704761,0.365092013,0.023641873,0.023641873,0.403413159," ,Pali Junction, Dr BR Ambedkar Road, Bandra West"
129,19.0624858,72.8297629,convenience,Sadguru Traders,mumbai,400050,12442373,4967605.04,Food & Grocery,0.075,0.8105,0.189502919,0.096747622,0.00114954,0.001824973,0.011704761,0.365092013,0.023641873,0.023641873,0.403413159," ,Pali Junction, Dr BR Ambedkar Road, Bandra West"
130,19.0616365,72.8286887,clothes,5th Avenue,mumbai,400050,12442373,8941112.26,Fashion,0.075,0.8105,0.189502919,0.096747622,0.00114954,0.001824973,0.011704761,0.365092013,0.023641873,0.023641873,0.403413159," ,St John's Street, Bandra West"
131,19.0616771,72.8286431,jewelry,Kia Jewellery,mumbai,400050,12442373,2683068.44,Fashion,0.075,0.8105,0.189502919,0.096747622,0.00114954,0.001824973,0.011704761,0.365092013,0.023641873,0.023641873,0.403413159," ,St John's Street, Bandra West"
132,19.1352356,72.8223368,convenience,,mumbai,400061,12442373,3550611.82,Food & Grocery,0.075,0.8105,0.189502919,0.096747622,0.00114954,0.001824973,0.011704761,0.365092013,0.023641873,0.023641873,0.403413159," , "
133,19.0159796,72.8232338,hairdresser,,mumbai,400025,12442373,3693060.93,Health & Beauty,0.075,0.8105,0.189502919,0.096747622,0.00114954,0.001824973,0.011704761,0.365092013,0.023641873,0.023641873,0.403413159," , "
134,19.0129569,72.8231265,florist,,mumbai,400018,12442373,3270863.92,Home & Garden,0.075,0.8105,0.189502919,0.096747622,0.00114954,0.001824973,0.011704761,0.365092013,0.023641873,0.023641873,0.403413159," , "
135,18.9348682,72.8328217,clothes,Khadi Bhavan,mumbai,400038,12442373,9742360.56,Fashion,0.075,0.8105,0.189502919,0.096747622,0.00114954,0.001824973,0.011704761,0.365092013,0.023641873,0.023641873,0.403413159," , "
136,18.9332116,72.8315342,kiosk,,mumbai,400032,12442373,3567397.29,General Retail,0.075,0.8105,0.189502919,0.096747622,0.00114954,0.001824973,0.011704761,0.365092013,0.023641873,0.023641873,0.403413159," , "
137,18.9334153,72.8317684,kiosk,,mumbai,400032,12442373,2723582.73,General Retail,0.075,0.8105,0.189502919,0.096747622,0.00114954,0.001824973,0.011704761,0.365092013,0.023641873,0.023641873,0.403413159," , "
138,19.1028855,72.9169028,supermarket,career classes,mumbai,400079,12442373,4395675.23,Food & Grocery,0.075,0.8105,0.189502919,0.096747622,0.00114954,0.001824973,0.011704761,0.365092013,0.023641873,0.023641873,0.403413159," , "
139,19.0693214,72.9003822,department_store,Shopper's Stop,mumbai,400077,12442373,3241837.25,General Retail,0.075,0.8105,0.189502919,0.096747622,0.00114954,0.001824973,0.011704761,0.365092013,0.023641873,0.023641873,0.403413159," , "
140,19.1386689,72.8290613,alcohol,,mumbai,400053,12442373,2619425.61,Food & Grocery,0.075,0.8105,0.189502919,0.096747622,0.00114954,0.001824973,0.011704761,0.365092013,0.023641873,0.023641873,0.403413159," , "
141,19.1348621,72.8323296,car,Volvo,mumbai,402205,12442373,3420304.63,Electronics & Auto,0.075,0.8105,0.189502919,0.096747622,0.00114954,0.001824973,0.011704761,0.365092013,0.023641873,0.023641873,0.403413159," , "
142,19.1525839,72.8310748,butcher,Fressco's Meats And More,mumbai,400053,12442373,2276836.02,Food & Grocery,0.075,0.8105,0.189502919,0.096747622,0.00114954,0.001824973,0.011704761,0.365092013,0.023641873,0.023641873,0.403413159," ,Oshiwara, Andheri West"
143,19.1294727,72.8190919,pet,Pet Care,mumbai,400061,12442373,2820293.1,Specialty & Hobby,0.075,0.8105,0.189502919,0.096747622,0.00114954,0.001824973,0.011704761,0.365092013,0.023641873,0.023641873,0.403413159," , "
144,19.1293421,72.8188226,chemist,,mumbai,400061,12442373,3046284,Health & Beauty,0.075,0.8105,0.189502919,0.096747622,0.00114954,0.001824973,0.011704761,0.365092013,0.023641873,0.023641873,0.403413159," , "
145,19.1293992,72.8187821,convenience,Roman Super Store,mumbai,400061,12442373,4567976.05,Food & Grocery,0.075,0.8105,0.189502919,0.096747622,0.00114954,0.001824973,0.011704761,0.365092013,0.023641873,0.023641873,0.403413159," , "
146,19.1373533,72.8292372,chemist,Sai Medical And General Stores,mumbai,400053,12442373,2382954.88,Health & Beauty,0.075,0.8105,0.189502919,0.096747622,0.00114954,0.001824973,0.011704761,0.365092013,0.023641873,0.023641873,0.403413159," , "
147,19.1711716,72.8350583,wholesale market,Metro Wholesale,mumbai,400064,12442373,2675861.18,General Retail,0.075,0.8105,0.189502919,0.096747622,0.00114954,0.001824973,0.011704761,0.365092013,0.023641873,0.023641873,0.403413159," ,Malad Link Road"
148,19.2118189,72.8673877,mall,VMall,mumbai,400101,12442373,2856655.93,General Retail,0.075,0.8105,0.189502919,0.096747622,0.00114954,0.001824973,0.011704761,0.365092013,0.023641873,0.023641873,0.403413159," , "
149,19.128645,72.8207227,pet,Bark & Meow,mumbai,400061,12442373,2835406.65,Specialty & Hobby,0.075,0.8105,0.189502919,0.096747622,0.00114954,0.001824973,0.011704761,0.365092013,0.023641873,0.023641873,0.403413159," , "
150,19.1294587,72.8187456,beauty,Shuang Hsi,mumbai,400061,12442373,3433107.17,Health & Beauty,0.075,0.8105,0.189502919,0.096747622,0.00114954,0.001824973,0.011704761,0.365092013,0.023641873,0.023641873,0.403413159," , "
151,19.1295053,72.8187265,travel_agency,Deluxe Travels,mumbai,400061,12442373,3584426.29,Services,0.075,0.8105,0.189502919,0.096747622,0.00114954,0.001824973,0.011704761,0.365092013,0.023641873,0.023641873,0.403413159," ,Bank Of Maharashtra Lane, Seven Bungalows, Andheri West"
152,19.0887329,72.8376577,supermarket,Reliance Retail ,mumbai,400054,12442373,4397095.39,Food & Grocery,0.075,0.8105,0.189502919,0.096747622,0.00114954,0.001824973,0.011704761,0.365092013,0.023641873,0.023641873,0.403413159," ,Swami Vivekanand Road"
153,19.0844444,72.8364463,supermarket,Society Stores,mumbai,400054,12442373,3652498.9,Food & Grocery,0.075,0.8105,0.189502919,0.096747622,0.00114954,0.001824973,0.011704761,0.365092013,0.023641873,0.023641873,0.403413159," , "
154,18.9635786,72.818327,motorcycle,Allibhai Premji Tyrewalla,mumbai,400004,12442373,2887843.01,Electronics & Auto,0.075,0.8105,0.189502919,0.096747622,0.00114954,0.001824973,0.011704761,0.365092013,0.023641873,0.023641873,0.403413159," , "
155,19.1715047,72.8697795,alcohol,Alcohol Shop,mumbai,400063,12442373,2815317.16,Food & Grocery,0.075,0.8105,0.189502919,0.096747622,0.00114954,0.001824973,0.011704761,0.365092013,0.023641873,0.023641873,0.403413159," , "
156,19.1747763,72.8678539,books,Street Book Shop,mumbai,400063,12442373,152136.39,Specialty & Hobby,0.075,0.8105,0.189502919,0.096747622,0.00114954,0.001824973,0.011704761,0.365092013,0.023641873,0.023641873,0.403413159," , "
157,19.0424559,72.9272638,laundry,Washing Machine,mumbai,400088,12442373,3027923.13,Services,0.075,0.8105,0.189502919,0.096747622,0.00114954,0.001824973,0.011704761,0.365092013,0.023641873,0.023641873,0.403413159," , "
158,19.1282382,72.8205537,chemist,Homoeopathic Dispensary,mumbai,400061,12442373,2891343.75,Health & Beauty,0.075,0.8105,0.189502919,0.096747622,0.00114954,0.001824973,0.011704761,0.365092013,0.023641873,0.023641873,0.403413159," , "
159,19.1353818,72.8130033,chemist,Sagar,mumbai,400061,12442373,3744350.61,Health & Beauty,0.075,0.8105,0.189502919,0.096747622,0.00114954,0.001824973,0.011704761,0.365092013,0.023641873,0.023641873,0.403413159," ,Yari Road"
160,19.1623421,72.8457567,mall,City Centre Mall,mumbai,400062,12442373,2883765.55,General Retail,0.075,0.8105,0.189502919,0.096747622,0.00114954,0.001824973,0.011704761,0.365092013,0.023641873,0.023641873,0.403413159," , "
161,19.0716357,72.8338539,jewelry,Kiah Jewelers,mumbai,400052,12442373,3019158.54,Fashion,0.075,0.8105,0.189502919,0.096747622,0.00114954,0.001824973,0.011704761,0.365092013,0.023641873,0.023641873,0.403413159," , "
162,19.0707767,72.8225462,convenience,Sea Spray Provision Store,mumbai,400052,12442373,3069000.53,Food & Grocery,0.075,0.8105,0.189502919,0.096747622,0.00114954,0.001824973,0.011704761,0.365092013,0.023641873,0.023641873,0.403413159," , "
163,19.0741262,72.8280742,chemist,Anand Vihar Medical Store,mumbai,400052,12442373,3085216.74,Health & Beauty,0.075,0.8105,0.189502919,0.096747622,0.00114954,0.001824973,0.011704761,0.365092013,0.023641873,0.023641873,0.403413159," , "
164,18.9160053,72.8195848,convenience,Student's General Store,mumbai,400005,0,52611.56,Food & Grocery,0,0,0,0,0,0,0,0,0,0,0," ,GD Somani Road"
165,19.0723542,72.8330369,jewelry,MG Sons Jeweler,mumbai,400052,12442373,3168139.16,Fashion,0.075,0.8105,0.189502919,0.096747622,0.00114954,0.001824973,0.011704761,0.365092013,0.023641873,0.023641873,0.403413159," , "
166,18.9956825,72.8258048,supermarket,Lifestyle,mumbai,400013,12442373,4264682.72,Food & Grocery,0.075,0.8105,0.189502919,0.096747622,0.00114954,0.001824973,0.011704761,0.365092013,0.023641873,0.023641873,0.403413159," , "
167,19.0392563,72.852191,jewelry,Maa Laxmi Jewelry,mumbai,400017,12442373,2905465.63,Fashion,0.075,0.8105,0.189502919,0.096747622,0.00114954,0.001824973,0.011704761,0.365092013,0.023641873,0.023641873,0.403413159," ,60 Feet Road"
168,19.0479874,72.8259386,dairy,Maryam Milk Center,mumbai,400050,12442373,3182525.31,Food & Grocery,0.075,0.8105,0.189502919,0.096747622,0.00114954,0.001824973,0.011704761,0.365092013,0.023641873,0.023641873,0.403413159," , "
169,19.049561,72.826271,yes,Flour Mill,mumbai,400050,12442373,3373697.65,Other,0.075,0.8105,0.189502919,0.096747622,0.00114954,0.001824973,0.011704761,0.365092013,0.023641873,0.023641873,0.403413159," , "
170,19.0500521,72.8264171,alcohol,Parry Wines II,mumbai,400050,12442373,2443692.67,Food & Grocery,0.075,0.8105,0.189502919,0.096747622,0.00114954,0.001824973,0.011704761,0.365092013,0.023641873,0.023641873,0.403413159," ,St John Baptist Road"
171,19.0618939,72.9247918,supermarket,Baiganwadi,mumbai,400043,12442373,4113334.35,Food & Grocery,0.075,0.8105,0.189502919,0.096747622,0.00114954,0.001824973,0.011704761,0.365092013,0.023641873,0.023641873,0.403413159," ,Road No. 9"
172,19.0621201,72.9088413,supermarket,super market,mumbai,400089,12442373,4324184.17,Food & Grocery,0.075,0.8105,0.189502919,0.096747622,0.00114954,0.001824973,0.011704761,0.365092013,0.023641873,0.023641873,0.403413159," ,P.L. Lokhande Marg"
173,19.0652786,72.9243818,food,athar store,mumbai,400043,12442373,2849123.87,Food & Grocery,0.075,0.8105,0.189502919,0.096747622,0.00114954,0.001824973,0.011704761,0.365092013,0.023641873,0.023641873,0.403413159," ,Road Number 5"
174,19.076787,72.8834956,electronics,Micromax Service Center,mumbai,400070,12442373,2673889.31,Electronics & Auto,0.075,0.8105,0.189502919,0.096747622,0.00114954,0.001824973,0.011704761,0.365092013,0.023641873,0.023641873,0.403413159," , "
175,19.0773799,72.8841053,travel_agency,Lucky Travels,mumbai,400070,12442373,2825603.57,Services,0.075,0.8105,0.189502919,0.096747622,0.00114954,0.001824973,0.011704761,0.365092013,0.023641873,0.023641873,0.403413159," ,Zainee Shopping Centre, Opposite Akash Talkies"
176,19.0629496,72.8443925,convenience,Deepak General Store,mumbai,400050,12442373,4365938.93,Food & Grocery,0.075,0.8105,0.189502919,0.096747622,0.00114954,0.001824973,0.011704761,0.365092013,0.023641873,0.023641873,0.403413159," , "
177,19.1399707,72.8319103,beauty,Saks,mumbai,400053,12442373,2025860.89,Health & Beauty,0.075,0.8105,0.189502919,0.096747622,0.00114954,0.001824973,0.011704761,0.365092013,0.023641873,0.023641873,0.403413159," , "
178,19.04543,72.9157503,motorcycle,Star Auto Garage (Yusufbhai),mumbai,400088,12442373,3191656.16,Electronics & Auto,0.075,0.8105,0.189502919,0.096747622,0.00114954,0.001824973,0.011704761,0.365092013,0.023641873,0.023641873,0.403413159," ,Sion Panvel Highway (Yashwantrao Chavan Marg)"
179,19.0325393,72.8384661,chemist,National Chemist,mumbai,400016,12442373,2754317.12,Health & Beauty,0.075,0.8105,0.189502919,0.096747622,0.00114954,0.001824973,0.011704761,0.365092013,0.023641873,0.023641873,0.403413159," , "
180,19.1454152,72.8231114,bakery,Theobroma,mumbai,400053,12442373,8390868.89,Food & Grocery,0.075,0.8105,0.189502919,0.096747622,0.00114954,0.001824973,0.011704761,0.365092013,0.023641873,0.023641873,0.403413159," , "
181,19.0383672,72.8537587,supermarket,Azad Timber Mart,mumbai,400017,12442373,3809705.08,Food & Grocery,0.075,0.8105,0.189502919,0.096747622,0.00114954,0.001824973,0.011704761,0.365092013,0.023641873,0.023641873,0.403413159," ,60 Feet Road"
182,19.0543375,72.8902113,car,Tata Wasan,mumbai,400071,12442373,2788732.46,Electronics & Auto,0.075,0.8105,0.189502919,0.096747622,0.00114954,0.001824973,0.011704761,0.365092013,0.023641873,0.023641873,0.403413159,"Tata Wasan,V N Purav Marg"
183,19.0543371,72.8915656,chemist,ROOPAM PHARMACY,mumbai,400071,12442373,2696161.72,Health & Beauty,0.075,0.8105,0.189502919,0.096747622,0.00114954,0.001824973,0.011704761,0.365092013,0.023641873,0.023641873,0.403413159," ,V N Purav Marg"
184,19.1298681,72.8259008,mobile_phone,Vodafone Idea,mumbai,402205,12442373,3370291.06,Electronics & Auto,0.075,0.8105,0.189502919,0.096747622,0.00114954,0.001824973,0.011704761,0.365092013,0.023641873,0.023641873,0.403413159," , "
185,19.1143954,72.8307062,variety_store,FabIndia,mumbai,400058,12442373,3530987.35,General Retail,0.075,0.8105,0.189502919,0.096747622,0.00114954,0.001824973,0.011704761,0.365092013,0.023641873,0.023641873,0.403413159," , "
186,19.1241693,72.8258223,beauty,Treen's Beauty Parlour,mumbai,400053,12442373,3105390.15,Health & Beauty,0.075,0.8105,0.189502919,0.096747622,0.00114954,0.001824973,0.011704761,0.365092013,0.023641873,0.023641873,0.403413159," ,N Dutta Road, Four Bungalows, Andheri West"
187,19.1242288,72.8257467,beauty,Cindrella,mumbai,400053,12442373,2462638.04,Health & Beauty,0.075,0.8105,0.189502919,0.096747622,0.00114954,0.001824973,0.011704761,0.365092013,0.023641873,0.023641873,0.403413159," ,N Dutta Road, Four Bungalows, Andheri West"
188,19.1301275,72.8184577,greengrocer,,mumbai,400061,12442373,3669123.97,Food & Grocery,0.075,0.8105,0.189502919,0.096747622,0.00114954,0.001824973,0.011704761,0.365092013,0.023641873,0.023641873,0.403413159," , "
189,19.1302632,72.8182525,alcohol,Princess Wines,mumbai,400061,12442373,3162911.26,Food & Grocery,0.075,0.8105,0.189502919,0.096747622,0.00114954,0.001824973,0.011704761,0.365092013,0.023641873,0.023641873,0.403413159," , "
190,19.0412194,72.9109498,convenience,Welcome General Store,mumbai,400088,12442373,4657906.94,Food & Grocery,0.075,0.8105,0.189502919,0.096747622,0.00114954,0.001824973,0.011704761,0.365092013,0.023641873,0.023641873,0.403413159," , "
191,19.0609035,72.9053072,supermarket,apna super market,mumbai,400089,12442373,4100256.62,Food & Grocery,0.075,0.8105,0.189502919,0.096747622,0.00114954,0.001824973,0.011704761,0.365092013,0.023641873,0.023641873,0.403413159," ,P.L. Lokhande Marg"
192,19.0662807,72.9284284,supermarket,,mumbai,400043,12442373,4670172.02,Food & Grocery,0.075,0.8105,0.189502919,0.096747622,0.00114954,0.001824973,0.011704761,0.365092013,0.023641873,0.023641873,0.403413159," , "
193,19.0632141,72.8847166,supermarket,nehru nagar market,mumbai,400024,12442373,2830134.79,Food & Grocery,0.075,0.8105,0.189502919,0.096747622,0.00114954,0.001824973,0.011704761,0.365092013,0.023641873,0.023641873,0.403413159," , "
194,19.0631633,72.9285928,tailor,Afreen tailor,mumbai,400043,12442373,3202536.05,Fashion,0.075,0.8105,0.189502919,0.096747622,0.00114954,0.001824973,0.011704761,0.365092013,0.023641873,0.023641873,0.403413159," ,Road No. 13"
195,19.0962058,72.9113018,jewelry,deepak,mumbai,400071,12442373,2217628.85,Fashion,0.075,0.8105,0.189502919,0.096747622,0.00114954,0.001824973,0.011704761,0.365092013,0.023641873,0.023641873,0.403413159," , "
196,19.0567842,72.9154195,jewelry,vardhaman jewellers,mumbai,400043,12442373,2517933.71,Fashion,0.075,0.8105,0.189502919,0.096747622,0.00114954,0.001824973,0.011704761,0.365092013,0.023641873,0.023641873,0.403413159," , "
197,19.0637525,72.9223395,chocolate,shop,mumbai,400043,12442373,3314571.3,Food & Grocery,0.075,0.8105,0.189502919,0.096747622,0.00114954,0.001824973,0.011704761,0.365092013,0.023641873,0.023641873,0.403413159," , "
198,19.0633138,72.929183,supermarket,lucky retail shop,mumbai,400043,12442373,4031237.08,Food & Grocery,0.075,0.8105,0.189502919,0.096747622,0.00114954,0.001824973,0.011704761,0.365092013,0.023641873,0.023641873,0.403413159," ,road No. 13"
199,19.06298,72.9010082,gift,Chembur Railway Station Post Office,mumbai,400089,12442373,3358403.49,Specialty & Hobby,0.075,0.8105,0.189502919,0.096747622,0.00114954,0.001824973,0.011704761,0.365092013,0.023641873,0.023641873,0.403413159," ,P.L. Lokhande Marg"
200,19.0646963,72.9219077,tailor,Sunder Tailors,mumbai,400043,12442373,2696056.31,Fashion,0.075,0.8105,0.189502919,0.096747622,0.00114954,0.001824973,0.011704761,0.365092013,0.023641873,0.023641873,0.403413159," ,Road Number 3"
201,19.0627485,72.9286967,yes,babu bhi,mumbai,400043,12442373,2886973.13,Other,0.075,0.8105,0.189502919,0.096747622,0.00114954,0.001824973,0.011704761,0.365092013,0.023641873,0.023641873,0.403413159," , "
202,19.0629144,72.9282683,yes,pooja communication,mumbai,400043,12442373,3254085.08,Other,0.075,0.8105,0.189502919,0.096747622,0.00114954,0.001824973,0.011704761,0.365092013,0.023641873,0.023641873,0.403413159," , "
203,19.0632047,72.9281729,bakery,,mumbai,400043,12442373,7565890.59,Food & Grocery,0.075,0.8105,0.189502919,0.096747622,0.00114954,0.001824973,0.011704761,0.365092013,0.023641873,0.023641873,0.403413159," , "
204,19.0581886,72.8901758,supermarket,dolls shops,mumbai,400024,12442373,3456068.06,Food & Grocery,0.075,0.8105,0.189502919,0.096747622,0.00114954,0.001824973,0.011704761,0.365092013,0.023641873,0.023641873,0.403413159," , "
205,19.1890881,72.835254,car,Navnit Motors,mumbai,400064,12442373,2256758.68,Electronics & Auto,0.075,0.8105,0.189502919,0.096747622,0.00114954,0.001824973,0.011704761,0.365092013,0.023641873,0.023641873,0.403413159," , "
206,19.1885566,72.8371412,car_parts,Spectra Motors Ltd,mumbai,400064,12442373,3402613.21,Electronics & Auto,0.075,0.8105,0.189502919,0.096747622,0.00114954,0.001824973,0.011704761,0.365092013,0.023641873,0.023641873,0.403413159," , "
207,19.0605786,72.8431239,doityourself,Hardware Store,mumbai,400050,12442373,2495657.15,Home & Garden,0.075,0.8105,0.189502919,0.096747622,0.00114954,0.001824973,0.011704761,0.365092013,0.023641873,0.023641873,0.403413159," , "
208,19.0608827,72.8451785,car_repair,,mumbai,400050,12442373,3210856.42,Services,0.075,0.8105,0.189502919,0.096747622,0.00114954,0.001824973,0.011704761,0.365092013,0.023641873,0.023641873,0.403413159," , "
209,19.0602261,72.8433009,convenience,Highway Store,mumbai,400050,12442373,3620656.81,Food & Grocery,0.075,0.8105,0.189502919,0.096747622,0.00114954,0.001824973,0.011704761,0.365092013,0.023641873,0.023641873,0.403413159," , "
210,19.0620717,72.8441564,convenience,Mukesh Store,mumbai,400050,12442373,3741681.37,Food & Grocery,0.075,0.8105,0.189502919,0.096747622,0.00114954,0.001824973,0.011704761,0.365092013,0.023641873,0.023641873,0.403413159," , "
211,19.0603581,72.8429199,alcohol,sunny wines,mumbai,400050,12442373,2541458.45,Food & Grocery,0.075,0.8105,0.189502919,0.096747622,0.00114954,0.001824973,0.011704761,0.365092013,0.023641873,0.023641873,0.403413159," , "
212,19.0611489,72.8436173,electronics,Fenchi,mumbai,400050,12442373,3229190.79,Electronics & Auto,0.075,0.8105,0.189502919,0.096747622,0.00114954,0.001824973,0.011704761,0.365092013,0.023641873,0.023641873,0.403413159," , "
213,19.0601958,72.8427322,hairdresser,Manish Salon,mumbai,400050,12442373,3601159.69,Health & Beauty,0.075,0.8105,0.189502919,0.096747622,0.00114954,0.001824973,0.011704761,0.365092013,0.023641873,0.023641873,0.403413159," , "
214,19.0608168,72.844379,hairdresser,Spiky,mumbai,400050,12442373,2957210.57,Health & Beauty,0.075,0.8105,0.189502919,0.096747622,0.00114954,0.001824973,0.011704761,0.365092013,0.023641873,0.023641873,0.403413159," , "
215,19.1354261,72.8129769,convenience,,mumbai,400061,12442373,4480811.19,Food & Grocery,0.075,0.8105,0.189502919,0.096747622,0.00114954,0.001824973,0.011704761,0.365092013,0.023641873,0.023641873,0.403413159," , "
216,19.1351134,72.813364,convenience,,mumbai,400061,12442373,4560146.32,Food & Grocery,0.075,0.8105,0.189502919,0.096747622,0.00114954,0.001824973,0.011704761,0.365092013,0.023641873,0.023641873,0.403413159," , "
217,19.1354382,72.813164,greengrocer,,mumbai,400061,12442373,3179478.51,Food & Grocery,0.075,0.8105,0.189502919,0.096747622,0.00114954,0.001824973,0.011704761,0.365092013,0.023641873,0.023641873,0.403413159," , "
218,19.1353651,72.8133269,convenience,,mumbai,400061,12442373,3853805.67,Food & Grocery,0.075,0.8105,0.189502919,0.096747622,0.00114954,0.001824973,0.011704761,0.365092013,0.023641873,0.023641873,0.403413159," , "
219,19.1350961,72.8134836,greengrocer,,mumbai,400061,12442373,2956273.35,Food & Grocery,0.075,0.8105,0.189502919,0.096747622,0.00114954,0.001824973,0.011704761,0.365092013,0.023641873,0.023641873,0.403413159," , "
220,19.128602,72.8205698,beauty,Grace N Glamour,mumbai,400061,12442373,3096381.18,Health & Beauty,0.075,0.8105,0.189502919,0.096747622,0.00114954,0.001824973,0.011704761,0.365092013,0.023641873,0.023641873,0.403413159," , "
221,19.1286226,72.8206164,dairy,Nagori Dairy,mumbai,400061,12442373,3520705.43,Food & Grocery,0.075,0.8105,0.189502919,0.096747622,0.00114954,0.001824973,0.011704761,0.365092013,0.023641873,0.023641873,0.403413159," , "
222,19.0616617,72.9247589,supermarket,ravi market,mumbai,400043,12442373,4264666.25,Food & Grocery,0.075,0.8105,0.189502919,0.096747622,0.00114954,0.001824973,0.011704761,0.365092013,0.023641873,0.023641873,0.403413159," ,Road No. 8"
223,19.0604731,72.9190762,supermarket,maharashtra lime depot,mumbai,400043,12442373,3652520.62,Food & Grocery,0.075,0.8105,0.189502919,0.096747622,0.00114954,0.001824973,0.011704761,0.365092013,0.023641873,0.023641873,0.403413159," ,Jeejabai Bhosle Marg"
224,19.0654862,72.9220619,computer,Rashu Solutions,mumbai,400043,12442373,2768607.92,Electronics & Auto,0.075,0.8105,0.189502919,0.096747622,0.00114954,0.001824973,0.011704761,0.365092013,0.023641873,0.023641873,0.403413159," ,Road Number 3"
225,19.0653309,72.9227227,confectionery,Vishal General Store,mumbai,400043,12442373,3192137.39,Food & Grocery,0.075,0.8105,0.189502919,0.096747622,0.00114954,0.001824973,0.011704761,0.365092013,0.023641873,0.023641873,0.403413159," ,Road Number 3"
226,19.0647008,72.8994348,jewelry,mangal sweet;Mangal jwellers,mumbai,400089,12442373,2266291.75,Fashion,0.075,0.8105,0.189502919,0.096747622,0.00114954,0.001824973,0.011704761,0.365092013,0.023641873,0.023641873,0.403413159," ,P.L. Lokhande Marg"
227,19.0654081,72.9226293,electronics,Asif Electronics,mumbai,400043,12442373,3107149.58,Electronics & Auto,0.075,0.8105,0.189502919,0.096747622,0.00114954,0.001824973,0.011704761,0.365092013,0.023641873,0.023641873,0.403413159," ,Road Number 3"
228,19.0652451,72.9230082,mobile_phone,Salman Telecom,mumbai,400043,12442373,2619890.26,Electronics & Auto,0.075,0.8105,0.189502919,0.096747622,0.00114954,0.001824973,0.011704761,0.365092013,0.023641873,0.023641873,0.403413159," ,Road Number 4"
229,19.0653732,72.9227312,mobile_phone,Shadab Telecom,mumbai,400043,12442373,3344082.91,Electronics & Auto,0.075,0.8105,0.189502919,0.096747622,0.00114954,0.001824973,0.011704761,0.365092013,0.023641873,0.023641873,0.403413159," ,Road Number 3"
230,19.0603544,72.9119625,yes,Zerox Shop,mumbai,400044,12442373,2952572.46,Other,0.075,0.8105,0.189502919,0.096747622,0.00114954,0.001824973,0.011704761,0.365092013,0.023641873,0.023641873,0.403413159," , "
231,19.0601781,72.9118925,yes,Chinese,mumbai,400044,12442373,3017455.89,Other,0.075,0.8105,0.189502919,0.096747622,0.00114954,0.001824973,0.011704761,0.365092013,0.023641873,0.023641873,0.403413159," , "
232,19.0652671,72.922773,tailor,Moon Tailors,mumbai,400043,12442373,2756540.32,Fashion,0.075,0.8105,0.189502919,0.096747622,0.00114954,0.001824973,0.011704761,0.365092013,0.023641873,0.023641873,0.403413159," ,Road Number 4"
233,19.0654442,72.9224183,mobile_phone,Madni Telecom,mumbai,400043,12442373,1686085.12,Electronics & Auto,0.075,0.8105,0.189502919,0.096747622,0.00114954,0.001824973,0.011704761,0.365092013,0.023641873,0.023641873,0.403413159," ,Road Number 3"
234,19.0654167,72.9224874,butcher,Shamstabrez Beef Shop,mumbai,400043,12442373,2545983.76,Food & Grocery,0.075,0.8105,0.189502919,0.096747622,0.00114954,0.001824973,0.011704761,0.365092013,0.023641873,0.023641873,0.403413159," ,Road Number 3"
235,19.0355556,72.9502668,bakery,dilshad bakery,mumbai,400088,12442373,8485924.02,Food & Grocery,0.075,0.8105,0.189502919,0.096747622,0.00114954,0.001824973,0.011704761,0.365092013,0.023641873,0.023641873,0.403413159," , "
236,19.035364,72.9500862,bakery,dilshad bakery,mumbai,400088,12442373,5015256.87,Food & Grocery,0.075,0.8105,0.189502919,0.096747622,0.00114954,0.001824973,0.011704761,0.365092013,0.023641873,0.023641873,0.403413159," , "
237,19.064604,72.8997447,supermarket,DWARKA Super market,mumbai,400089,12442373,4098999.88,Food & Grocery,0.075,0.8105,0.189502919,0.096747622,0.00114954,0.001824973,0.011704761,0.365092013,0.023641873,0.023641873,0.403413159," ,P.L. Lokhande Marg"
238,19.0653634,72.9225984,video_games,Shefar Cyber Cafe,mumbai,400043,12442373,2676035.99,Specialty & Hobby,0.075,0.8105,0.189502919,0.096747622,0.00114954,0.001824973,0.011704761,0.365092013,0.023641873,0.023641873,0.403413159," ,Road Number 3"
239,19.0642178,72.9004374,tobacco,BHOWAD PAN BIDI SHOP,mumbai,400089,12442373,3421457.88,Other,0.075,0.8105,0.189502919,0.096747622,0.00114954,0.001824973,0.011704761,0.365092013,0.023641873,0.023641873,0.403413159," ,P.L. Lokhande Marg"
240,19.0654904,72.9225027,mobile_phone,Irfan Telecom,mumbai,400043,12442373,2895201.88,Electronics & Auto,0.075,0.8105,0.189502919,0.096747622,0.00114954,0.001824973,0.011704761,0.365092013,0.023641873,0.023641873,0.403413159," ,Road Number 3"
241,19.0634993,72.9282708,tailor,,mumbai,400043,12442373,2915114.09,Fashion,0.075,0.8105,0.189502919,0.096747622,0.00114954,0.001824973,0.011704761,0.365092013,0.023641873,0.023641873,0.403413159," , "
242,19.0654863,72.9225281,electronics,Azam DvD Shop,mumbai,400043,12442373,2590640.76,Electronics & Auto,0.075,0.8105,0.189502919,0.096747622,0.00114954,0.001824973,0.011704761,0.365092013,0.023641873,0.023641873,0.403413159," ,Road Number 3"
243,19.0391631,72.9476637,medical_supply,bombay medical store,mumbai,400088,12442373,3392093.82,Health & Beauty,0.075,0.8105,0.189502919,0.096747622,0.00114954,0.001824973,0.011704761,0.365092013,0.023641873,0.023641873,0.403413159," , "
244,19.0663004,72.9219141,convenience,SANA MILK STOR,mumbai,400043,12442373,4591734.45,Food & Grocery,0.075,0.8105,0.189502919,0.096747622,0.00114954,0.001824973,0.011704761,0.365092013,0.023641873,0.023641873,0.403413159," , "
245,19.0664757,72.9219955,tea,TEA CENTAR,mumbai,400043,12442373,2532542.38,Food & Grocery,0.075,0.8105,0.189502919,0.096747622,0.00114954,0.001824973,0.011704761,0.365092013,0.023641873,0.023641873,0.403413159," ,Road Number 2"
246,19.0668058,72.9222153,toys,TOY STOR,mumbai,400043,12442373,2130344.22,Specialty & Hobby,0.075,0.8105,0.189502919,0.096747622,0.00114954,0.001824973,0.011704761,0.365092013,0.023641873,0.023641873,0.403413159," ,Road Number 2"
247,19.0597585,72.8880756,supermarket,FOOTWEAR,mumbai,400071,12442373,4212221.19,Food & Grocery,0.075,0.8105,0.189502919,0.096747622,0.00114954,0.001824973,0.011704761,0.365092013,0.023641873,0.023641873,0.403413159," ,THAKKAR BAPPA COLONY"
248,19.0606453,72.9102402,bakery,Monginis Shop,mumbai,400089,12442373,10728416.43,Food & Grocery,0.075,0.8105,0.189502919,0.096747622,0.00114954,0.001824973,0.011704761,0.365092013,0.023641873,0.023641873,0.403413159," ,P.L. Lokhande Marg"
249,19.0606503,72.9102885,yes,Ice-Cream Parlour,mumbai,400089,12442373,2090569.15,Other,0.075,0.8105,0.189502919,0.096747622,0.00114954,0.001824973,0.011704761,0.365092013,0.023641873,0.023641873,0.403413159," ,P.L. Lokhande Marg"
250,19.0536781,72.9271582,yes,gernel,mumbai,400088,12442373,3206828.65,Other,0.075,0.8105,0.189502919,0.096747622,0.00114954,0.001824973,0.011704761,0.365092013,0.023641873,0.023641873,0.403413159," , "
251,19.0544062,72.9154852,jewelry,mangalam jwelers,mumbai,400088,12442373,3015683.55,Fashion,0.075,0.8105,0.189502919,0.096747622,0.00114954,0.001824973,0.011704761,0.365092013,0.023641873,0.023641873,0.403413159," , "
252,19.0536947,72.9274711,supermarket,local market,mumbai,400088,12442373,4783497.51,Food & Grocery,0.075,0.8105,0.189502919,0.096747622,0.00114954,0.001824973,0.011704761,0.365092013,0.023641873,0.023641873,0.403413159," , "
253,19.0614236,72.9154973,medical_supply,Sagar Medical,mumbai,400044,12442373,3275770.26,Health & Beauty,0.075,0.8105,0.189502919,0.096747622,0.00114954,0.001824973,0.011704761,0.365092013,0.023641873,0.023641873,0.403413159," , "
254,19.0520821,72.9269997,milk_shop,,mumbai,400088,12442373,3966423.18,Food & Grocery,0.075,0.8105,0.189502919,0.096747622,0.00114954,0.001824973,0.011704761,0.365092013,0.023641873,0.023641873,0.403413159," ,D P Road"
255,19.0525159,72.9268443,hardware,rajeshwar hardware store,mumbai,400088,12442373,2753624.54,Home & Garden,0.075,0.8105,0.189502919,0.096747622,0.00114954,0.001824973,0.011704761,0.365092013,0.023641873,0.023641873,0.403413159," , "
256,19.0638497,72.9216064,fabric,ALVI STORE,mumbai,400043,12442373,3634436.65,Fashion,0.075,0.8105,0.189502919,0.096747622,0.00114954,0.001824973,0.011704761,0.365092013,0.023641873,0.023641873,0.403413159," ,Road Number 3"
257,19.0541136,72.9234513,yes,saundarya beauty parlour,mumbai,400043,12442373,2924710.8,Other,0.075,0.8105,0.189502919,0.096747622,0.00114954,0.001824973,0.011704761,0.365092013,0.023641873,0.023641873,0.403413159," , "
258,19.0550389,72.9236201,jewelry,Hira Jewlers,mumbai,400043,12442373,2877831.9,Fashion,0.075,0.8105,0.189502919,0.096747622,0.00114954,0.001824973,0.011704761,0.365092013,0.023641873,0.023641873,0.403413159," , "
259,19.1314047,72.9153569,convenience,Security check,mumbai,400076,12442373,4636052.66,Food & Grocery,0.075,0.8105,0.189502919,0.096747622,0.00114954,0.001824973,0.011704761,0.365092013,0.023641873,0.023641873,0.403413159," , "
260,19.0654864,72.9198176,mobile_phone,reliance mobile store,mumbai,400043,12442373,4356769.67,Electronics & Auto,0.075,0.8105,0.189502919,0.096747622,0.00114954,0.001824973,0.011704761,0.365092013,0.023641873,0.023641873,0.403413159," , "
261,19.0656415,72.9199034,medical_supply,Raj Medical General Sture Chemist& Druggist,mumbai,400043,12442373,3012080.34,Health & Beauty,0.075,0.8105,0.189502919,0.096747622,0.00114954,0.001824973,0.011704761,0.365092013,0.023641873,0.023641873,0.403413159," , "
262,19.1372752,72.8294555,beauty,It's All About You,mumbai,400053,12442373,3880330.95,Health & Beauty,0.075,0.8105,0.189502919,0.096747622,0.00114954,0.001824973,0.011704761,0.365092013,0.023641873,0.023641873,0.403413159," , "
263,19.1369268,72.8296567,greengrocer,,mumbai,400053,12442373,3322703.08,Food & Grocery,0.075,0.8105,0.189502919,0.096747622,0.00114954,0.001824973,0.011704761,0.365092013,0.023641873,0.023641873,0.403413159," , "
264,19.1369227,72.8293921,bakery,CakeBred,mumbai,400053,12442373,8121142.02,Food & Grocery,0.075,0.8105,0.189502919,0.096747622,0.00114954,0.001824973,0.011704761,0.365092013,0.023641873,0.023641873,0.403413159," , "
265,19.1368768,72.829412,beauty,Stellie D,mumbai,400053,12442373,3067293.96,Health & Beauty,0.075,0.8105,0.189502919,0.096747622,0.00114954,0.001824973,0.011704761,0.365092013,0.023641873,0.023641873,0.403413159," , "
266,19.1362681,72.8296148,clothes,Nike,mumbai,402205,12442373,5362825.74,Fashion,0.075,0.8105,0.189502919,0.096747622,0.00114954,0.001824973,0.011704761,0.365092013,0.023641873,0.023641873,0.403413159," , "
267,19.1362707,72.8295377,clothes,Tagnine,mumbai,402205,12442373,8679255.59,Fashion,0.075,0.8105,0.189502919,0.096747622,0.00114954,0.001824973,0.011704761,0.365092013,0.023641873,0.023641873,0.403413159," , "
268,19.1372061,72.8294724,beauty,Unlock Style,mumbai,400053,12442373,2242463.48,Health & Beauty,0.075,0.8105,0.189502919,0.096747622,0.00114954,0.001824973,0.011704761,0.365092013,0.023641873,0.023641873,0.403413159," , "
269,19.0666067,72.9205289,mobile_phone,Vodafone Mini Stoar,mumbai,400043,12442373,2924318.05,Electronics & Auto,0.075,0.8105,0.189502919,0.096747622,0.00114954,0.001824973,0.011704761,0.365092013,0.023641873,0.023641873,0.403413159," , "
270,19.0670883,72.9208306,bakery,KHALID BAKRERY,mumbai,400043,12442373,8654654.82,Food & Grocery,0.075,0.8105,0.189502919,0.096747622,0.00114954,0.001824973,0.011704761,0.365092013,0.023641873,0.023641873,0.403413159," , "
271,19.067137,72.92061,medical_supply,A1 Medical and Jurnal Stor,mumbai,400043,12442373,3069550.11,Health & Beauty,0.075,0.8105,0.189502919,0.096747622,0.00114954,0.001824973,0.011704761,0.365092013,0.023641873,0.023641873,0.403413159," , "
272,19.1837893,72.9514262,supermarket,Big Bazar,mumbai,400080,12442373,4417061.23,Food & Grocery,0.075,0.8105,0.189502919,0.096747622,0.00114954,0.001824973,0.011704761,0.365092013,0.023641873,0.023641873,0.403413159," ,LBS Marg"
273,19.0679848,72.9210313,mobile_phone,IDEA Galart Authorised Center,mumbai,400043,12442373,3184865.56,Electronics & Auto,0.075,0.8105,0.189502919,0.096747622,0.00114954,0.001824973,0.011704761,0.365092013,0.023641873,0.023641873,0.403413159," , "
274,19.0686148,72.920808,mobile_phone,ALAM TELECOM,mumbai,400043,12442373,3619071.13,Electronics & Auto,0.075,0.8105,0.189502919,0.096747622,0.00114954,0.001824973,0.011704761,0.365092013,0.023641873,0.023641873,0.403413159," , "
275,19.0690266,72.9206424,medical_supply,SAI SANJIVANI NEDICAL & GERNERAL STOARES,mumbai,400043,12442373,3185863.31,Health & Beauty,0.075,0.8105,0.189502919,0.096747622,0.00114954,0.001824973,0.011704761,0.365092013,0.023641873,0.023641873,0.403413159," , "
276,19.1821512,72.9539881,electronics,CROMA,mumbai,400080,12442373,2808566.53,Electronics & Auto,0.075,0.8105,0.189502919,0.096747622,0.00114954,0.001824973,0.011704761,0.365092013,0.023641873,0.023641873,0.403413159," ,Purushottam Kheraj Road"
277,19.1748556,72.9538674,books,Mahavir Book Store,mumbai,400080,12442373,169745.47,Specialty & Hobby,0.075,0.8105,0.189502919,0.096747622,0.00114954,0.001824973,0.011704761,0.365092013,0.023641873,0.023641873,0.403413159," ,Ganesh Gawde Road"
278,19.2436717,72.851635,alcohol,,mumbai,400092,12442373,3949938.59,Food & Grocery,0.075,0.8105,0.189502919,0.096747622,0.00114954,0.001824973,0.011704761,0.365092013,0.023641873,0.023641873,0.403413159," , "
279,19.1456184,72.8311116,chemist,Om Shree Sai Medical,mumbai,400102,12442373,3125391.15,Health & Beauty,0.075,0.8105,0.189502919,0.096747622,0.00114954,0.001824973,0.011704761,0.365092013,0.023641873,0.023641873,0.403413159," ,Adarsh Nagar, New Link Road"
280,19.0797988,72.8802023,bakery,Zam Zam,mumbai,400070,12442373,7354971.39,Food & Grocery,0.075,0.8105,0.189502919,0.096747622,0.00114954,0.001824973,0.011704761,0.365092013,0.023641873,0.023641873,0.403413159," , "
281,19.141999,72.8289954,beauty,Mocktail,mumbai,400053,12442373,2874762.85,Health & Beauty,0.075,0.8105,0.189502919,0.096747622,0.00114954,0.001824973,0.011704761,0.365092013,0.023641873,0.023641873,0.403413159," , "
282,18.9414069,72.8275924,pastry,Monginis,mumbai,400020,12442373,3231047.56,Food & Grocery,0.075,0.8105,0.189502919,0.096747622,0.00114954,0.001824973,0.011704761,0.365092013,0.023641873,0.023641873,0.403413159,"Monginis,New Marine Lines"
283,18.9424345,72.8311921,travel_agency,Kadamba Transport Corporation,mumbai,400020,12442373,3636734.19,Services,0.075,0.8105,0.189502919,0.096747622,0.00114954,0.001824973,0.011704761,0.365092013,0.023641873,0.023641873,0.403413159," , "
284,19.1399515,72.8195574,convenience,Rajkamal Super Market,mumbai,400061,12442373,4211283.26,Food & Grocery,0.075,0.8105,0.189502919,0.096747622,0.00114954,0.001824973,0.011704761,0.365092013,0.023641873,0.023641873,0.403413159," , "
285,19.0935528,72.8838529,supermarket,Big Bazzar,mumbai,400072,12442373,3983323.85,Food & Grocery,0.075,0.8105,0.189502919,0.096747622,0.00114954,0.001824973,0.011704761,0.365092013,0.023641873,0.023641873,0.403413159," ,90 Feet Road"
286,19.1305411,72.819179,boutique,Trendz,mumbai,400061,12442373,3235186.75,Fashion,0.075,0.8105,0.189502919,0.096747622,0.00114954,0.001824973,0.011704761,0.365092013,0.023641873,0.023641873,0.403413159," , "
287,19.1260616,72.9177543,shoes,Bata store,mumbai,400076,12442373,2700863.63,Fashion,0.075,0.8105,0.189502919,0.096747622,0.00114954,0.001824973,0.011704761,0.365092013,0.023641873,0.023641873,0.403413159," , "
288,19.1248609,72.9168933,pastry,Monginis,mumbai,400076,12442373,4200950.5,Food & Grocery,0.075,0.8105,0.189502919,0.096747622,0.00114954,0.001824973,0.011704761,0.365092013,0.023641873,0.023641873,0.403413159,"Monginis, "
289,19.0191737,72.8352652,books,The Marine Sports,mumbai,400028,12442373,168299.53,Specialty & Hobby,0.075,0.8105,0.189502919,0.096747622,0.00114954,0.001824973,0.011704761,0.365092013,0.023641873,0.023641873,0.403413159," ,Gokhale Road North"
290,19.0208004,72.8369718,books,Rajhans Publishers,mumbai,400028,12442373,161935.02,Specialty & Hobby,0.075,0.8105,0.189502919,0.096747622,0.00114954,0.001824973,0.011704761,0.365092013,0.023641873,0.023641873,0.403413159," , "
291,19.0207328,72.8371292,beauty,Facecutt,mumbai,400028,12442373,3142596.9,Health & Beauty,0.075,0.8105,0.189502919,0.096747622,0.00114954,0.001824973,0.011704761,0.365092013,0.023641873,0.023641873,0.403413159," , "
292,19.0521801,72.9321631,supermarket,market,mumbai,400088,12442373,3103630.98,Food & Grocery,0.075,0.8105,0.189502919,0.096747622,0.00114954,0.001824973,0.011704761,0.365092013,0.023641873,0.023641873,0.403413159," , "
293,19.0700082,72.8785142,supermarket,kurla market,mumbai,400024,12442373,4167081.12,Food & Grocery,0.075,0.8105,0.189502919,0.096747622,0.00114954,0.001824973,0.011704761,0.365092013,0.023641873,0.023641873,0.403413159," , "
294,19.0627935,72.9221783,clothes,arzoo tailor,mumbai,400043,12442373,7622160.91,Fashion,0.075,0.8105,0.189502919,0.096747622,0.00114954,0.001824973,0.011704761,0.365092013,0.023641873,0.023641873,0.403413159," ,mohmmad road"
295,19.0610961,72.8964783,convenience,Rohan Kirana Store,mumbai,400089,12442373,3982134.52,Food & Grocery,0.075,0.8105,0.189502919,0.096747622,0.00114954,0.001824973,0.011704761,0.365092013,0.023641873,0.023641873,0.403413159," , "
296,19.0574084,72.887101,medical_supply,Gautam medical store,mumbai,400024,12442373,3833073.47,Health & Beauty,0.075,0.8105,0.189502919,0.096747622,0.00114954,0.001824973,0.011704761,0.365092013,0.023641873,0.023641873,0.403413159," , "
297,19.0646986,72.8823284,dairy,Makka Madina Milk Centre,mumbai,400024,12442373,3806315.37,Food & Grocery,0.075,0.8105,0.189502919,0.096747622,0.00114954,0.001824973,0.011704761,0.365092013,0.023641873,0.023641873,0.403413159,"Makka Madina Milk Centre, "
298,19.0584123,72.8986304,beauty,Javed Habib,mumbai,400089,12442373,2928764.37,Health & Beauty,0.075,0.8105,0.189502919,0.096747622,0.00114954,0.001824973,0.011704761,0.365092013,0.023641873,0.023641873,0.403413159," , "
299,19.0530905,72.8974389,paint,kalyan store,mumbai,400089,12442373,2678780.72,Home & Garden,0.075,0.8105,0.189502919,0.096747622,0.00114954,0.001824973,0.011704761,0.365092013,0.023641873,0.023641873,0.403413159," , "
300,19.062935,72.9226809,bakery,,mumbai,400043,12442373,8690989.88,Food & Grocery,0.075,0.8105,0.189502919,0.096747622,0.00114954,0.001824973,0.011704761,0.365092013,0.023641873,0.023641873,0.403413159," ,Road Number 5"
301,19.0628483,72.9220001,yes,ice cream shop,mumbai,400043,12442373,2623799.87,Other,0.075,0.8105,0.189502919,0.096747622,0.00114954,0.001824973,0.011704761,0.365092013,0.023641873,0.023641873,0.403413159," , "
302,19.218634,72.8338672,dairy,Amul Dairy & Icecream,mumbai,900092,12442373,3610528.59,Food & Grocery,0.075,0.8105,0.189502919,0.096747622,0.00114954,0.001824973,0.011704761,0.365092013,0.023641873,0.023641873,0.403413159," , "
303,19.1108399,72.8975037,supermarket,DMart,mumbai,400072,12442373,3686543.31,Food & Grocery,0.075,0.8105,0.189502919,0.096747622,0.00114954,0.001824973,0.011704761,0.365092013,0.023641873,0.023641873,0.403413159," , "
304,19.1130029,72.8619811,beauty,Enrich Salon,mumbai,400099,12442373,3970475.13,Health & Beauty,0.075,0.8105,0.189502919,0.096747622,0.00114954,0.001824973,0.011704761,0.365092013,0.023641873,0.023641873,0.403413159," , "
305,19.1130816,72.8621873,convenience,Maru Stores,mumbai,400099,12442373,4565543.85,Food & Grocery,0.075,0.8105,0.189502919,0.096747622,0.00114954,0.001824973,0.011704761,0.365092013,0.023641873,0.023641873,0.403413159," , "
306,19.0665339,72.8429632,jewelry,Anmol Jewellers,mumbai,400052,12442373,3139843.67,Fashion,0.075,0.8105,0.189502919,0.096747622,0.00114954,0.001824973,0.011704761,0.365092013,0.023641873,0.023641873,0.403413159," , "
307,19.0667021,72.8424849,chemist,Aarti Medicals,mumbai,400052,12442373,3015264.91,Health & Beauty,0.075,0.8105,0.189502919,0.096747622,0.00114954,0.001824973,0.011704761,0.365092013,0.023641873,0.023641873,0.403413159," , "
308,19.0665783,72.8428414,jewelry,Vandana,mumbai,400052,12442373,3429784.3,Fashion,0.075,0.8105,0.189502919,0.096747622,0.00114954,0.001824973,0.011704761,0.365092013,0.023641873,0.023641873,0.403413159," , "
309,19.0665116,72.8430354,convenience,Shivji Hirji,mumbai,400052,12442373,3961313.34,Food & Grocery,0.075,0.8105,0.189502919,0.096747622,0.00114954,0.001824973,0.011704761,0.365092013,0.023641873,0.023641873,0.403413159," , "
310,19.0664692,72.8431925,jewelry,Laxmi Jewellers,mumbai,400052,12442373,3722571.27,Fashion,0.075,0.8105,0.189502919,0.096747622,0.00114954,0.001824973,0.011704761,0.365092013,0.023641873,0.023641873,0.403413159," , "
311,19.0664838,72.8431506,convenience,Bharat Grain Stores,mumbai,400052,12442373,4113950.07,Food & Grocery,0.075,0.8105,0.189502919,0.096747622,0.00114954,0.001824973,0.011704761,0.365092013,0.023641873,0.023641873,0.403413159," , "
312,19.1274491,72.8311606,chemist,Apple Medical,mumbai,400058,12442373,3026267.03,Health & Beauty,0.075,0.8105,0.189502919,0.096747622,0.00114954,0.001824973,0.011704761,0.365092013,0.023641873,0.023641873,0.403413159," , "
313,19.0985057,72.8748528,yes,,mumbai,400099,12442373,2533934.03,Other,0.075,0.8105,0.189502919,0.096747622,0.00114954,0.001824973,0.011704761,0.365092013,0.023641873,0.023641873,0.403413159," , "
314,19.1148108,72.8886648,supermarket,Saki vihar Dark store,mumbai,400072,12442373,4058762.46,Food & Grocery,0.075,0.8105,0.189502919,0.096747622,0.00114954,0.001824973,0.011704761,0.365092013,0.023641873,0.023641873,0.403413159," , "
315,19.1290538,72.8218327,greengrocer,,mumbai,400061,12442373,2882816.21,Food & Grocery,0.075,0.8105,0.189502919,0.096747622,0.00114954,0.001824973,0.011704761,0.365092013,0.023641873,0.023641873,0.403413159," , "
316,19.129143,72.8219599,convenience,Gurukrupa,mumbai,400061,12442373,4069932.97,Food & Grocery,0.075,0.8105,0.189502919,0.096747622,0.00114954,0.001824973,0.011704761,0.365092013,0.023641873,0.023641873,0.403413159," , "
317,19.1287204,72.8213972,bakery,Birdy's,mumbai,400061,12442373,7935447.98,Food & Grocery,0.075,0.8105,0.189502919,0.096747622,0.00114954,0.001824973,0.011704761,0.365092013,0.023641873,0.023641873,0.403413159," , "
318,19.1265788,72.8208292,alcohol,,mumbai,400061,12442373,2732096.24,Food & Grocery,0.075,0.8105,0.189502919,0.096747622,0.00114954,0.001824973,0.011704761,0.365092013,0.023641873,0.023641873,0.403413159," , "
319,19.129516,72.8258769,toys,Greenturtle,mumbai,402205,12442373,3153732.48,Specialty & Hobby,0.075,0.8105,0.189502919,0.096747622,0.00114954,0.001824973,0.011704761,0.365092013,0.023641873,0.023641873,0.403413159," , "
320,19.1010606,72.839649,jewelry,Waman Hari Pethe Jewellers,mumbai,400057,12442373,3687054.69,Fashion,0.075,0.8105,0.189502919,0.096747622,0.00114954,0.001824973,0.011704761,0.365092013,0.023641873,0.023641873,0.403413159," , "
321,19.0906801,72.8380646,car,Suburban Honda,mumbai,400054,12442373,2820025.05,Electronics & Auto,0.075,0.8105,0.189502919,0.096747622,0.00114954,0.001824973,0.011704761,0.365092013,0.023641873,0.023641873,0.403413159," ,Haggerty Road"
322,19.0904376,72.8380245,car,Hyundai,mumbai,400054,12442373,3150259.86,Electronics & Auto,0.075,0.8105,0.189502919,0.096747622,0.00114954,0.001824973,0.011704761,0.365092013,0.023641873,0.023641873,0.403413159," , "
323,19.0849014,72.837884,electronics,Vijay Sales,mumbai,400054,12442373,3161518.85,Electronics & Auto,0.075,0.8105,0.189502919,0.096747622,0.00114954,0.001824973,0.011704761,0.365092013,0.023641873,0.023641873,0.403413159," , "
324,19.0845496,72.8382577,computer,HP World,mumbai,400054,12442373,2900274.45,Electronics & Auto,0.075,0.8105,0.189502919,0.096747622,0.00114954,0.001824973,0.011704761,0.365092013,0.023641873,0.023641873,0.403413159," , "
325,19.1737656,72.9548,jewelry,Swarna Plaza,mumbai,400080,12442373,2609978.28,Fashion,0.075,0.8105,0.189502919,0.096747622,0.00114954,0.001824973,0.011704761,0.365092013,0.023641873,0.023641873,0.403413159," ,Mahatma Gandhi Road"
326,19.1136327,72.8408905,florist,Pooja's Flower Art,mumbai,400058,12442373,2799282.72,Home & Garden,0.075,0.8105,0.189502919,0.096747622,0.00114954,0.001824973,0.011704761,0.365092013,0.023641873,0.023641873,0.403413159," , "
327,19.1137022,72.8409461,convenience,Vimal Stores,mumbai,400058,12442373,4678864.84,Food & Grocery,0.075,0.8105,0.189502919,0.096747622,0.00114954,0.001824973,0.011704761,0.365092013,0.023641873,0.023641873,0.403413159," , "
328,19.113601,72.8408089,beauty,Park The Salon,mumbai,400058,12442373,3266659.43,Health & Beauty,0.075,0.8105,0.189502919,0.096747622,0.00114954,0.001824973,0.011704761,0.365092013,0.023641873,0.023641873,0.403413159," , "
329,19.1137898,72.8423281,shoes,Bata,mumbai,400058,12442373,2926481.61,Fashion,0.075,0.8105,0.189502919,0.096747622,0.00114954,0.001824973,0.011704761,0.365092013,0.023641873,0.023641873,0.403413159," , "
330,19.1137364,72.8422535,shoes,Metro Shoes,mumbai,400058,12442373,3540497.23,Fashion,0.075,0.8105,0.189502919,0.096747622,0.00114954,0.001824973,0.011704761,0.365092013,0.023641873,0.023641873,0.403413159," , "
331,19.1137031,72.8423305,shoes,Lord's,mumbai,400058,12442373,2806562.43,Fashion,0.075,0.8105,0.189502919,0.096747622,0.00114954,0.001824973,0.011704761,0.365092013,0.023641873,0.023641873,0.403413159," , "
332,19.1387161,72.8158184,beauty,Venus,mumbai,400061,12442373,2227961.95,Health & Beauty,0.075,0.8105,0.189502919,0.096747622,0.00114954,0.001824973,0.011704761,0.365092013,0.023641873,0.023641873,0.403413159," , "
333,19.1149653,72.8345226,confectionery,Tiwari Brothers,mumbai,400058,12442373,3286025.76,Food & Grocery,0.075,0.8105,0.189502919,0.096747622,0.00114954,0.001824973,0.011704761,0.365092013,0.023641873,0.023641873,0.403413159," , "
334,19.1502527,72.8317931,beauty,Auburn,mumbai,400102,12442373,3585464.95,Health & Beauty,0.075,0.8105,0.189502919,0.096747622,0.00114954,0.001824973,0.011704761,0.365092013,0.023641873,0.023641873,0.403413159," , "
335,19.1512564,72.83189,beauty,Rever,mumbai,400102,12442373,3685394.74,Health & Beauty,0.075,0.8105,0.189502919,0.096747622,0.00114954,0.001824973,0.011704761,0.365092013,0.023641873,0.023641873,0.403413159," , "
336,19.1511606,72.8319153,beauty,Lemon,mumbai,400102,12442373,3197189.84,Health & Beauty,0.075,0.8105,0.189502919,0.096747622,0.00114954,0.001824973,0.011704761,0.365092013,0.023641873,0.023641873,0.403413159," , "
337,19.1514949,72.8314679,beauty,Billy's,mumbai,400102,12442373,3605982.1,Health & Beauty,0.075,0.8105,0.189502919,0.096747622,0.00114954,0.001824973,0.011704761,0.365092013,0.023641873,0.023641873,0.403413159," , "
338,19.1528897,72.8301303,beauty,Lakme Salon,mumbai,400090,12442373,3615077.54,Health & Beauty,0.075,0.8105,0.189502919,0.096747622,0.00114954,0.001824973,0.011704761,0.365092013,0.023641873,0.023641873,0.403413159," , "
339,19.1272525,72.8215163,boutique,Anjore,mumbai,400061,12442373,3360647.19,Fashion,0.075,0.8105,0.189502919,0.096747622,0.00114954,0.001824973,0.011704761,0.365092013,0.023641873,0.023641873,0.403413159," , "
340,19.1144933,72.8342601,florist,Florista,mumbai,400058,12442373,3801856.07,Home & Garden,0.075,0.8105,0.189502919,0.096747622,0.00114954,0.001824973,0.011704761,0.365092013,0.023641873,0.023641873,0.403413159," , "
341,19.1144274,72.8342146,florist,Flowers By Design,mumbai,400058,12442373,2446342.8,Home & Garden,0.075,0.8105,0.189502919,0.096747622,0.00114954,0.001824973,0.011704761,0.365092013,0.023641873,0.023641873,0.403413159," , "
342,19.1143836,72.8342091,laundry,Pressto,mumbai,400058,12442373,2819051.42,Services,0.075,0.8105,0.189502919,0.096747622,0.00114954,0.001824973,0.011704761,0.365092013,0.023641873,0.023641873,0.403413159," , "
343,19.1240525,72.8238207,convenience,Gala Traders,mumbai,400061,12442373,3716042.06,Food & Grocery,0.075,0.8105,0.189502919,0.096747622,0.00114954,0.001824973,0.011704761,0.365092013,0.023641873,0.023641873,0.403413159," , "
344,19.0593768,72.8292563,convenience,Roman,mumbai,400050,12442373,4645056.85,Food & Grocery,0.075,0.8105,0.189502919,0.096747622,0.00114954,0.001824973,0.011704761,0.365092013,0.023641873,0.023641873,0.403413159," , "
345,19.0593819,72.8293877,bakery,Birdy's,mumbai,400050,12442373,7925651.73,Food & Grocery,0.075,0.8105,0.189502919,0.096747622,0.00114954,0.001824973,0.011704761,0.365092013,0.023641873,0.023641873,0.403413159," ,Master Vinayak Road (Perry Road)"
346,19.0600916,72.8294293,books,Prince Books,mumbai,400050,12442373,129437.55,Specialty & Hobby,0.075,0.8105,0.189502919,0.096747622,0.00114954,0.001824973,0.011704761,0.365092013,0.023641873,0.023641873,0.403413159," , "
347,19.0603144,72.8296749,dry_cleaning,Ocean Dry Cleaner,mumbai,400050,12442373,3573188.99,Services,0.075,0.8105,0.189502919,0.096747622,0.00114954,0.001824973,0.011704761,0.365092013,0.023641873,0.023641873,0.403413159," , "
348,19.0601989,72.8294403,car_repair,Paul Auto Garage,mumbai,400050,12442373,2651931.97,Services,0.075,0.8105,0.189502919,0.096747622,0.00114954,0.001824973,0.011704761,0.365092013,0.023641873,0.023641873,0.403413159," , "
349,18.9147237,72.8238852,hairdresser,Jean-Claude Biguine,mumbai,400005,12442373,3825081.16,Health & Beauty,0.075,0.8105,0.189502919,0.096747622,0.00114954,0.001824973,0.011704761,0.365092013,0.023641873,0.023641873,0.403413159," ,Wodehouse Rd"
350,18.914704,72.8181018,supermarket,Nature's Basket,mumbai,400005,0,134948,Food & Grocery,0,0,0,0,0,0,0,0,0,0,0," ,TL Wasvani Road"
351,19.1288305,72.8214625,beauty,Chin Chai,mumbai,400061,12442373,3448123.92,Health & Beauty,0.075,0.8105,0.189502919,0.096747622,0.00114954,0.001824973,0.011704761,0.365092013,0.023641873,0.023641873,0.403413159," , "
352,19.1287541,72.8214266,dry_cleaning,Mohan Dry Cleaning,mumbai,400061,12442373,3292686.69,Services,0.075,0.8105,0.189502919,0.096747622,0.00114954,0.001824973,0.011704761,0.365092013,0.023641873,0.023641873,0.403413159," , "
353,18.9166297,72.8176649,chemist,Noble Plus,mumbai,400005,0,29368.07,Health & Beauty,0,0,0,0,0,0,0,0,0,0,0," ,GD Somani Road"
354,18.916598,72.8176354,jewelry,Tikamdas Motiram Jewellers,mumbai,400005,0,24967.36,Fashion,0,0,0,0,0,0,0,0,0,0,0," ,GD Somani Road"
355,18.9243867,72.8332216,gift,Cottage Industries Emporium,mumbai,400001,12442373,2855723.85,Specialty & Hobby,0.075,0.8105,0.189502919,0.096747622,0.00114954,0.001824973,0.011704761,0.365092013,0.023641873,0.023641873,0.403413159," ,Chhatrapati Shivaji Maharaj Road"
356,19.1712757,72.9544751,confectionery,KOTHARI NIWAS SWEETS & FARSAN,mumbai,400080,12442373,2628478.16,Food & Grocery,0.075,0.8105,0.189502919,0.096747622,0.00114954,0.001824973,0.011704761,0.365092013,0.023641873,0.023641873,0.403413159," , "
357,19.1004333,72.840394,books,Parle Book Cenre,mumbai,400057,12442373,149166.72,Specialty & Hobby,0.075,0.8105,0.189502919,0.096747622,0.00114954,0.001824973,0.011704761,0.365092013,0.023641873,0.023641873,0.403413159," ,D Joshi Marg"
358,18.9320612,72.8318427,books,Kitab Khana,mumbai,400032,12442373,148834.14,Specialty & Hobby,0.075,0.8105,0.189502919,0.096747622,0.00114954,0.001824973,0.011704761,0.365092013,0.023641873,0.023641873,0.403413159," , "
359,19.1954063,72.8390227,convenience,,mumbai,400064,12442373,3787258.76,Food & Grocery,0.075,0.8105,0.189502919,0.096747622,0.00114954,0.001824973,0.011704761,0.365092013,0.023641873,0.023641873,0.403413159," , "
360,19.1954531,72.8388662,convenience,Shah Nanji Virjii Store,mumbai,400064,12442373,3184028.01,Food & Grocery,0.075,0.8105,0.189502919,0.096747622,0.00114954,0.001824973,0.011704761,0.365092013,0.023641873,0.023641873,0.403413159," , "
361,19.1386477,72.8148429,convenience,Prince Stores,mumbai,400061,12442373,4826086.33,Food & Grocery,0.075,0.8105,0.189502919,0.096747622,0.00114954,0.001824973,0.011704761,0.365092013,0.023641873,0.023641873,0.403413159," , "
362,19.0613725,72.834572,clothes,Anokhi,mumbai,400050,12442373,7896193.7,Fashion,0.075,0.8105,0.189502919,0.096747622,0.00114954,0.001824973,0.011704761,0.365092013,0.023641873,0.023641873,0.403413159," , "
363,19.0853922,72.8348568,car,Infinity Motors,mumbai,400054,12442373,2865420.06,Electronics & Auto,0.075,0.8105,0.189502919,0.096747622,0.00114954,0.001824973,0.011704761,0.365092013,0.023641873,0.023641873,0.403413159," , "
364,19.1319106,72.8148668,boutique,Omra,mumbai,400061,12442373,3134546.83,Fashion,0.075,0.8105,0.189502919,0.096747622,0.00114954,0.001824973,0.011704761,0.365092013,0.023641873,0.023641873,0.403413159," , "
365,19.062634,72.8344102,hairdresser,AKreations Hair and Beyond,mumbai,400050,12442373,2826312.09,Health & Beauty,0.075,0.8105,0.189502919,0.096747622,0.00114954,0.001824973,0.011704761,0.365092013,0.023641873,0.023641873,0.403413159,"AKreations Hair and Beyond,RK Patkar Marg (Waterfield Road)"
366,19.072118,72.828602,furniture,Sanctum,mumbai,400052,12442373,2862078.63,Home & Garden,0.075,0.8105,0.189502919,0.096747622,0.00114954,0.001824973,0.011704761,0.365092013,0.023641873,0.023641873,0.403413159," ,19th Road"
367,19.0212576,72.8436138,computer,kalpana classes,mumbai,400016,12442373,3655478.34,Electronics & Auto,0.075,0.8105,0.189502919,0.096747622,0.00114954,0.001824973,0.011704761,0.365092013,0.023641873,0.023641873,0.403413159," , "
368,18.9602676,72.8242272,hardware,Dinath bldg,mumbai,400004,12442373,2396958.37,Home & Garden,0.075,0.8105,0.189502919,0.096747622,0.00114954,0.001824973,0.011704761,0.365092013,0.023641873,0.023641873,0.403413159," ,Patthe Bapurao Marg (Falkland Road)"
369,18.9585343,72.8241587,bakery,New York ,mumbai,400004,12442373,10366305.44,Food & Grocery,0.075,0.8105,0.189502919,0.096747622,0.00114954,0.001824973,0.011704761,0.365092013,0.023641873,0.023641873,0.403413159," ,Khetwadi 5th Lane"
370,18.9529534,72.8353928,computer,Tidy tronic ,mumbai,400002,12442373,2629188.78,Electronics & Auto,0.075,0.8105,0.189502919,0.096747622,0.00114954,0.001824973,0.011704761,0.365092013,0.023641873,0.023641873,0.403413159," ,Veer Vithaldas Chandan Street (De Souza Street)"
371,19.1160946,72.840609,car,BMW Navnit Motors,mumbai,400058,12442373,3930598.26,Electronics & Auto,0.075,0.8105,0.189502919,0.096747622,0.00114954,0.001824973,0.011704761,0.365092013,0.023641873,0.023641873,0.403413159,"BMW Navnit Motors,CD Barfiwala Road"
372,19.0595449,72.8324625,convenience,Benzer Stores,mumbai,400050,12442373,4043757.28,Food & Grocery,0.075,0.8105,0.189502919,0.096747622,0.00114954,0.001824973,0.011704761,0.365092013,0.023641873,0.023641873,0.403413159," , "
373,19.0204691,72.8413984,clothes,paneri,mumbai,400028,12442373,7396006.41,Fashion,0.075,0.8105,0.189502919,0.096747622,0.00114954,0.001824973,0.011704761,0.365092013,0.023641873,0.023641873,0.403413159," , "
374,19.1715446,72.9526298,confectionery,Morbiwala Sweets & Farsan,mumbai,400080,12442373,2487690.92,Food & Grocery,0.075,0.8105,0.189502919,0.096747622,0.00114954,0.001824973,0.011704761,0.365092013,0.023641873,0.023641873,0.403413159," ,R H Bhojraj Road"
375,19.0567563,72.8394652,supermarket,Sahakari Bhandar,mumbai,400050,12442373,3708928.92,Food & Grocery,0.075,0.8105,0.189502919,0.096747622,0.00114954,0.001824973,0.011704761,0.365092013,0.023641873,0.023641873,0.403413159," ,Gurunanak Marg"
376,19.0517198,72.8241459,laundry,Hill Road Cleaners,mumbai,400050,12442373,2643815.93,Services,0.075,0.8105,0.189502919,0.096747622,0.00114954,0.001824973,0.011704761,0.365092013,0.023641873,0.023641873,0.403413159," , "
377,19.0200676,72.840925,clothes,Rangoli,mumbai,400028,12442373,8324510.79,Fashion,0.075,0.8105,0.189502919,0.096747622,0.00114954,0.001824973,0.011704761,0.365092013,0.023641873,0.023641873,0.403413159," , "
378,18.9502323,72.833458,jewelry,Royal Traders,mumbai,400002,12442373,2159652.93,Fashion,0.075,0.8105,0.189502919,0.096747622,0.00114954,0.001824973,0.011704761,0.365092013,0.023641873,0.023641873,0.403413159," ,Sarang Street"
379,18.9496568,72.8327906,jewelry,S.K Creation,mumbai,400002,12442373,3080577.31,Fashion,0.075,0.8105,0.189502919,0.096747622,0.00114954,0.001824973,0.011704761,0.365092013,0.023641873,0.023641873,0.403413159," ,Sutar Chawl"
380,18.9203895,72.8259138,travel_agency,nikhil transport services,mumbai,400005,12442373,3481569.84,Services,0.075,0.8105,0.189502919,0.096747622,0.00114954,0.001824973,0.011704761,0.365092013,0.023641873,0.023641873,0.403413159," ,Nathalal M. Parikh Road (Wodehouse Road)"
381,19.0963457,72.8878459,butcher,Tofa Mutton & Chicken,mumbai,400072,12442373,3666139.69,Food & Grocery,0.075,0.8105,0.189502919,0.096747622,0.00114954,0.001824973,0.011704761,0.365092013,0.023641873,0.023641873,0.403413159," , "
382,18.9419523,72.8278498,furniture,various at dhobi talao ,mumbai,400020,12442373,3589263.79,Home & Garden,0.075,0.8105,0.189502919,0.096747622,0.00114954,0.001824973,0.011704761,0.365092013,0.023641873,0.023641873,0.403413159," , "
383,19.0544459,72.8248246,florist,Khoja Florist,mumbai,400050,12442373,3438792.9,Home & Garden,0.075,0.8105,0.189502919,0.096747622,0.00114954,0.001824973,0.011704761,0.365092013,0.023641873,0.023641873,0.403413159," ,Hill Road"
384,19.0600689,72.8325421,mobile_phone,Naeem Communications,mumbai,400050,12442373,3113478.01,Electronics & Auto,0.075,0.8105,0.189502919,0.096747622,0.00114954,0.001824973,0.011704761,0.365092013,0.023641873,0.023641873,0.403413159," ,28th Road"
385,19.0552145,72.8364787,travel_agency,Shriji Tourist Tours and Travels,mumbai,400050,12442373,3014090.83,Services,0.075,0.8105,0.189502919,0.096747622,0.00114954,0.001824973,0.011704761,0.365092013,0.023641873,0.023641873,0.403413159," ,Jarimari Road"
386,19.0552943,72.8364663,hairdresser,OK hair dressers,mumbai,400050,12442373,2274387.1,Health & Beauty,0.075,0.8105,0.189502919,0.096747622,0.00114954,0.001824973,0.011704761,0.365092013,0.023641873,0.023641873,0.403413159," ,Jarimari Road"
387,19.0551877,72.8364794,travel_agency,JK Travels,mumbai,400050,12442373,2804391.09,Services,0.075,0.8105,0.189502919,0.096747622,0.00114954,0.001824973,0.011704761,0.365092013,0.023641873,0.023641873,0.403413159," ,Jarimari Road"
388,19.0554953,72.8359477,travel_agency,Canara Travels Tailors Hotels,mumbai,400050,12442373,2236453.43,Services,0.075,0.8105,0.189502919,0.096747622,0.00114954,0.001824973,0.011704761,0.365092013,0.023641873,0.023641873,0.403413159," ,Ramdas Naik Road"
389,19.0555597,72.835904,bakery,Monginis,mumbai,400050,12442373,8841606.25,Food & Grocery,0.075,0.8105,0.189502919,0.096747622,0.00114954,0.001824973,0.011704761,0.365092013,0.023641873,0.023641873,0.403413159," ,Ramdas Naik Road"
390,19.0549864,72.8362158,tea,Girnar Tea,mumbai,400050,12442373,3375247.36,Food & Grocery,0.075,0.8105,0.189502919,0.096747622,0.00114954,0.001824973,0.011704761,0.365092013,0.023641873,0.023641873,0.403413159," ,Ramdas Naik Road"
391,19.0551796,72.8359562,alcohol,Goodluck Wines,mumbai,400050,12442373,4182759.84,Food & Grocery,0.075,0.8105,0.189502919,0.096747622,0.00114954,0.001824973,0.011704761,0.365092013,0.023641873,0.023641873,0.403413159," ,Ramdas Naik Road"
392,19.0554259,72.8356579,sports,Chand Sports,mumbai,400050,12442373,2722355.63,Specialty & Hobby,0.075,0.8105,0.189502919,0.096747622,0.00114954,0.001824973,0.011704761,0.365092013,0.023641873,0.023641873,0.403413159," ,Hill Road"
393,19.055523,72.8355609,confectionery,Eros Sweets,mumbai,400050,12442373,2662929.14,Food & Grocery,0.075,0.8105,0.189502919,0.096747622,0.00114954,0.001824973,0.011704761,0.365092013,0.023641873,0.023641873,0.403413159," ,Ramdas Naik Road"
394,18.94939,72.8282529,supermarket,tishacreation,mumbai,400002,12442373,3680387.07,Food & Grocery,0.075,0.8105,0.189502919,0.096747622,0.00114954,0.001824973,0.011704761,0.365092013,0.023641873,0.023641873,0.403413159," ,2nd floor swadesi market kalbadevi road"
395,19.0555664,72.8319284,supermarket,Nature's Basket,mumbai,400050,12442373,3565535.02,Food & Grocery,0.075,0.8105,0.189502919,0.096747622,0.00114954,0.001824973,0.011704761,0.365092013,0.023641873,0.023641873,0.403413159," ,Ramdas Naik Road"
396,19.0608996,72.8334165,convenience,Om Paresh Stores,mumbai,400050,12442373,4698606.84,Food & Grocery,0.075,0.8105,0.189502919,0.096747622,0.00114954,0.001824973,0.011704761,0.365092013,0.023641873,0.023641873,0.403413159," ,25th Road"
397,18.9247534,72.819941,ticket,Box Office,mumbai,400021,0,25272.69,Services,0,0,0,0,0,0,0,0,0,0,0," , "
398,18.9255095,72.8199423,art,art gallery,mumbai,400021,0,27678.77,Specialty & Hobby,0,0,0,0,0,0,0,0,0,0,0," , "
399,19.0126091,72.8233395,car,,mumbai,400018,12442373,2261312.05,Electronics & Auto,0.075,0.8105,0.189502919,0.096747622,0.00114954,0.001824973,0.011704761,0.365092013,0.023641873,0.023641873,0.403413159," , "
400,19.0614696,72.836882,car_parts,Dhiraj Motor Stores,mumbai,400050,12442373,3140380.52,Electronics & Auto,0.075,0.8105,0.189502919,0.096747622,0.00114954,0.001824973,0.011704761,0.365092013,0.023641873,0.023641873,0.403413159," ,30th Road"
401,19.0530849,72.8291654,hairdresser,Midas Salon,mumbai,400050,12442373,2754436.01,Health & Beauty,0.075,0.8105,0.189502919,0.096747622,0.00114954,0.001824973,0.011704761,0.365092013,0.023641873,0.023641873,0.403413159,"Midas Salon,Chapel Road"
402,19.0538069,72.8306992,chemist,Care-n-Cure Medical Strores,mumbai,400050,12442373,2641933.62,Health & Beauty,0.075,0.8105,0.189502919,0.096747622,0.00114954,0.001824973,0.011704761,0.365092013,0.023641873,0.023641873,0.403413159," ,Varoda Cross Road"
403,19.0604971,72.8312049,hairdresser,Rever Hair & Beauty Salon,mumbai,400050,12442373,3076143.6,Health & Beauty,0.075,0.8105,0.189502919,0.096747622,0.00114954,0.001824973,0.011704761,0.365092013,0.023641873,0.023641873,0.403413159," , "
404,19.061795,72.8357069,alcohol,The Vineyard,mumbai,400050,12442373,2659623.64,Food & Grocery,0.075,0.8105,0.189502919,0.096747622,0.00114954,0.001824973,0.011704761,0.365092013,0.023641873,0.023641873,0.403413159,"The Vineyard,Vithalbhai Patel Road"
405,19.137717,72.8723054,car_repair,,mumbai,400096,12442373,3146511.17,Services,0.075,0.8105,0.189502919,0.096747622,0.00114954,0.001824973,0.011704761,0.365092013,0.023641873,0.023641873,0.403413159,"Nisarg Auto parts,J.v.link.rod"
406,19.1214512,72.9173924,cosmetics,,mumbai,400076,12442373,2919355.16,Health & Beauty,0.075,0.8105,0.189502919,0.096747622,0.00114954,0.001824973,0.011704761,0.365092013,0.023641873,0.023641873,0.403413159,"Style Plus,Powai Road"
407,19.0609622,72.8324277,books,Title Waves,mumbai,400050,12442373,191076.59,Specialty & Hobby,0.075,0.8105,0.189502919,0.096747622,0.00114954,0.001824973,0.011704761,0.365092013,0.023641873,0.023641873,0.403413159,"Title Waves, "
408,18.9371397,72.8365776,books,,mumbai,400001,12442373,197565.15,Specialty & Hobby,0.075,0.8105,0.189502919,0.096747622,0.00114954,0.001824973,0.011704761,0.365092013,0.023641873,0.023641873,0.403413159,"Jay Enterprises,M Mehta Road"
409,18.9572723,72.8324645,clothes,,mumbai,400003,12442373,7059971.08,Fashion,0.075,0.8105,0.189502919,0.096747622,0.00114954,0.001824973,0.011704761,0.365092013,0.023641873,0.023641873,0.403413159,"Raj Cap Rumal &Janamaz,mohd ali road"
410,19.1174494,72.940843,bicycle,,mumbai,400033,12442373,3524127.41,Specialty & Hobby,0.075,0.8105,0.189502919,0.096747622,0.00114954,0.001824973,0.011704761,0.365092013,0.023641873,0.023641873,0.403413159," ,Road No 2"
411,19.0443947,72.8648881,confectionery,,mumbai,400022,12442373,3084394.64,Food & Grocery,0.075,0.8105,0.189502919,0.096747622,0.00114954,0.001824973,0.011704761,0.365092013,0.023641873,0.023641873,0.403413159,"Bikaner Sweets, "
412,18.9421671,72.8316171,travel_agency,,mumbai,400020,12442373,2996830.61,Services,0.075,0.8105,0.189502919,0.096747622,0.00114954,0.001824973,0.011704761,0.365092013,0.023641873,0.023641873,0.403413159,"Chandni travels, "
413,18.96762,72.8199601,supermarket,,mumbai,400004,12442373,4043089.18,Food & Grocery,0.075,0.8105,0.189502919,0.096747622,0.00114954,0.001824973,0.011704761,0.365092013,0.023641873,0.023641873,0.403413159,"Reliance Smart, "
414,19.0528036,72.9264916,travel_agency,,mumbai,400043,12442373,3310481.13,Services,0.075,0.8105,0.189502919,0.096747622,0.00114954,0.001824973,0.011704761,0.365092013,0.023641873,0.023641873,0.403413159,"RajRatna Tours and Travels,D P Road"
415,18.9342138,72.83208,travel_agency,,mumbai,400038,12442373,3635968.76,Services,0.075,0.8105,0.189502919,0.096747622,0.00114954,0.001824973,0.011704761,0.365092013,0.023641873,0.023641873,0.403413159,"Thomas Cook, "
416,19.0967478,72.8746576,duty_free,Adani Duty Free,mumbai,400099,12442373,3045687.18,General Retail,0.075,0.8105,0.189502919,0.096747622,0.00114954,0.001824973,0.011704761,0.365092013,0.023641873,0.023641873,0.403413159," , "
417,19.2130115,72.8425548,electronics,CromƒÅ,mumbai,400067,12442373,3518311.97,Electronics & Auto,0.075,0.8105,0.189502919,0.096747622,0.00114954,0.001824973,0.011704761,0.365092013,0.023641873,0.023641873,0.403413159,"Croma (Electronics & Home Appliances),Boraspada Road"
418,19.1470699,72.8359766,travel_agency,,mumbai,400102,12442373,3262192.91,Services,0.075,0.8105,0.189502919,0.096747622,0.00114954,0.001824973,0.011704761,0.365092013,0.023641873,0.023641873,0.403413159,"Travelxp India Pvt. Ltd.,Off New Link Road"
419,18.9309515,72.8272323,car_repair,,mumbai,400020,12442373,2839027.08,Services,0.075,0.8105,0.189502919,0.096747622,0.00114954,0.001824973,0.011704761,0.365092013,0.023641873,0.023641873,0.403413159,"Shaman Wheels Pvt Ltd,7, jamshedji Tata Road"
420,19.0400604,72.8396494,confectionery,,mumbai,400016,12442373,3064137.41,Food & Grocery,0.075,0.8105,0.189502919,0.096747622,0.00114954,0.001824973,0.011704761,0.365092013,0.023641873,0.023641873,0.403413159,"Usman Suleman Mithaiwala,Cadell Road"
421,18.9345745,72.8280174,ticket,,mumbai,400020,12442373,3109157.37,Services,0.075,0.8105,0.189502919,0.096747622,0.00114954,0.001824973,0.011704761,0.365092013,0.023641873,0.023641873,0.403413159,"Western Railway Passenger Reservation Centre, "
422,19.0390606,72.8421039,confectionery,Sagar Sweets & Bakery,mumbai,400016,12442373,3672993.17,Food & Grocery,0.075,0.8105,0.189502919,0.096747622,0.00114954,0.001824973,0.011704761,0.365092013,0.023641873,0.023641873,0.403413159,"Sagar Sweets, "
423,19.0354216,72.8424983,mobile_phone,Vodafone Idea,mumbai,400016,12442373,3103289.25,Electronics & Auto,0.075,0.8105,0.189502919,0.096747622,0.00114954,0.001824973,0.011704761,0.365092013,0.023641873,0.023641873,0.403413159," , "
424,19.0303688,72.8468491,alcohol,,mumbai,400016,12442373,3091555.73,Food & Grocery,0.075,0.8105,0.189502919,0.096747622,0.00114954,0.001824973,0.011704761,0.365092013,0.023641873,0.023641873,0.403413159,"Baba Wines, "
425,19.0669807,72.9043098,clothes,Just Wear Dressline,mumbai,400089,12442373,7838920.77,Fashion,0.075,0.8105,0.189502919,0.096747622,0.00114954,0.001824973,0.011704761,0.365092013,0.023641873,0.023641873,0.403413159," ,Road No 4"
426,19.0669359,72.9044168,supermarket,Amrut Stores,mumbai,400089,12442373,3652764.41,Food & Grocery,0.075,0.8105,0.189502919,0.096747622,0.00114954,0.001824973,0.011704761,0.365092013,0.023641873,0.023641873,0.403413159," ,Road No 4"
427,19.1182503,72.9113594,supermarket,,mumbai,400076,12442373,4684543.31,Food & Grocery,0.075,0.8105,0.189502919,0.096747622,0.00114954,0.001824973,0.011704761,0.365092013,0.023641873,0.023641873,0.403413159,"HAIKO,Main St, Hiranandani Gardens,"
428,19.163187,72.9407614,car_parts,,mumbai,400082,12442373,3294446.19,Electronics & Auto,0.075,0.8105,0.189502919,0.096747622,0.00114954,0.001824973,0.011704761,0.365092013,0.023641873,0.023641873,0.403413159,"BABA Auto parts,Goregaon Mulund Link Road"
429,19.1613002,72.9453343,car_parts,,mumbai,400078,12442373,3183139.54,Electronics & Auto,0.075,0.8105,0.189502919,0.096747622,0.00114954,0.001824973,0.011704761,0.365092013,0.023641873,0.023641873,0.403413159,"Jay Ambe Car Parts,Goregaon Mulund Link Road"
430,19.1625865,72.9423772,car_parts,,mumbai,400078,12442373,2432387.79,Electronics & Auto,0.075,0.8105,0.189502919,0.096747622,0.00114954,0.001824973,0.011704761,0.365092013,0.023641873,0.023641873,0.403413159,"MGP Car Parts,Goregaon Mulund Link Road"
431,19.0597393,72.8340023,hairdresser,Glory,mumbai,400050,12442373,2421533.12,Health & Beauty,0.075,0.8105,0.189502919,0.096747622,0.00114954,0.001824973,0.011704761,0.365092013,0.023641873,0.023641873,0.403413159," ,RK Patkar Marg (Waterfield Road)"
432,18.9642705,72.8441845,bakery,,mumbai,200008,12442373,8249944.48,Food & Grocery,0.075,0.8105,0.189502919,0.096747622,0.00114954,0.001824973,0.011704761,0.365092013,0.023641873,0.023641873,0.403413159,"WIBS Bakery, "
